province, district, name, HMIS_code, facility_type,   latitude, longitude
Central,Chibombo,Chamakubi Health Post,10010001,Health Centre,-14.79990288,27.64199073
Central,Chibombo,Kabangalala,10010011,Health Centre,-15.16894184,27.72865541
Lusaka,Luangwa,Kaunga Health Post,50050009,Health Centre,-15.08780097,30.19014764
Lusaka,Luangwa,Kavalamanja,50050010,Health Centre,-15.61518059,30.26324881
Lusaka,Luangwa,Luangwa Boma,50050011,Health Centre,-15.62393008,30.40786497
Lusaka,Luangwa,Luangwa District Hospital,50050012,Health Centre,-15.55042326,30.35036285
Lusaka,Luangwa,Luangwa High School,50050013,Health Centre,-15.27652538,30.27361798
Lusaka,Luangwa,Mandombe,50050014,Health Centre,-15.58268986,30.37472326
Lusaka,Luangwa,Mangelengele Health Post,50050015,Health Centre,-15.19276435,30.18119585
Lusaka,Luangwa,Mphuka,50050016,Health Centre,-15.43691478,30.36007354
Lusaka,Luangwa,Sinyawagora,50050017,Health Centre,-15.05605656,30.20805029
Lusaka,Lusaka,Airport,50060007,Health Centre,-15.3256284,28.44641385
Central,Kabwe,Kasanda,10050024,Health Centre,-14.4554119,28.42630423
Lusaka,Lusaka,Arakan Camp Hospital,50060011,Health Centre,,
Lusaka,Lusaka,Bauleni,50060015,Health Centre,-15.44684775,28.37350943
Lusaka,Lusaka,Cancer Diseases Hospital,50060024,Health Centre,-15.43377874,28.31299055
Lusaka,Lusaka,Chainama,5006XX35,Health Centre,-15.38419214,28.35561861
Lusaka,Lusaka,Chainda South Clinic,5006XXHZ,Health Centre,-15.41013667,28.38073128
Lusaka,Lusaka,Chainda,50060030,Health Centre,-15.38927961,28.40427613
Lusaka,Lusaka,Chaisa,50060032,Health Centre,-15.38430673,28.28295979
Lusaka,Lusaka,Chawama Hospital,50060035,Health Centre,-15.46169301,28.28289296
Central,Kabwe,Kasavasa,10050025,Health Centre,-14.57748609,28.37785131
Lusaka,Lusaka,Chazanga,50060036,Health Centre,-15.33868401,28.28558592
Lusaka,Lusaka,Chilenje Hospital,50060042,Health Centre,-15.44956492,28.33785619
Lusaka,Lusaka,Chimwemwe Health Post,50060044,Health Centre,-15.35249891,28.3072707
Lusaka,Lusaka,Chipata Hospital,50060046,Health Centre,-15.370334,28.294195
Lusaka,Lusaka,Chisomo Hospital,50060048,Health Centre,-15.41879415,28.25828756
Lusaka,Lusaka,Chunga Health Post,50060051,Health Centre,-15.357496,28.251906
Lusaka,Lusaka,Circle of Hope,50060055,Health Centre,,
Lusaka,Lusaka,Civic Centre,50060059,Health Centre,-15.42087859,28.30247209
Central,Kabwe,Katondo,10050026,Health Centre,-14.45668591,28.47174593
Lusaka,Lusaka,Evelyn Hone College Health Post,50060087,Health Centre,-15.41635608,28.2903338
Lusaka,Lusaka,Freedom,50060100,Health Centre,-15.53623705,28.2714221
Lusaka,Lusaka,Garden Health Post,50060104,Health Centre,-15.39820912,28.29355563
Lusaka,Lusaka,George,50060106,Health Centre,-15.37944064,28.23875386
Lusaka,Lusaka,Kabwata,50060129,Health Centre,-15.43504529,28.30869025
Lusaka,Lusaka,Kalingalinga,50060131,Health Centre,-15.40664087,28.33005532
Lusaka,Lusaka,Kamulanga Health Post,50060133,Health Centre,-15.47980405,28.30509918
Central,Kabwe,Kawama,10050027,Health Centre,-14.42039055,28.42841636
Lusaka,Lusaka,Kamwala,50060135,Health Centre,-15.42852385,28.28969438
Lusaka,Lusaka,Kanyama Hospital,50060136,Health Centre,-15.42824386,28.26088607
Lusaka,Lusaka,Kanyama West,50060138,Health Centre,-15.42639072,28.23548172
Lusaka,Lusaka,Kaunda Square,50060140,Health Centre,-15.3725381,28.35133253
Lusaka,Lusaka,Levy Mwanawasa Teaching Hospital,50060146,Health Centre,-15.38524047,28.3530784
Lusaka,Lusaka,Lilayi,50060153,Health Centre,-15.52280568,28.30193696
Lusaka,Lusaka,Lusaka Central Prison,50060241,Health Centre,,
Lusaka,Lusaka,Maina Soko Military Hospital,50060172,Health Centre,-15.43550171,28.33576673
Central,Kabwe,KIFCO Health Post,1005XX38,Health Centre,,
Lusaka,Chilanga,Makeni Konga,50010008,Health Centre,-15.485434,28.177014
Lusaka,Lusaka,Mandevu,50060180,Health Centre,-15.37203313,28.28919003
Lusaka,Lusaka,Matero Main,50060184,Health Centre,-15.38162639,28.26345486
Lusaka,Lusaka,Matero Hospital,50060183,Health Centre,-15.37282778,28.26445361
Lusaka,Lusaka,Ministry Of Health HQ Health Post,50060194,Health Centre,-15.4155313,28.31893327
Lusaka,Lusaka,Mtendere,50060198,Health Centre,, 
Lusaka,Lusaka,Ng'ombe,50060211,Health Centre,-15.36727264,28.32386913
Lusaka,Lusaka,Nipa Health Post,5006XX40,Health Centre,-15.41898886,28.29060277
Central,Kabwe,Kohima Camp Hospital,10050028,Health Centre,,
Lusaka,Lusaka,Sikanze Police Hospital,50060255,Health Centre,,
Lusaka,Lusaka,St. Agnes's,50060263,Health Centre,-15.4147392,28.3837546
Lusaka,Lusaka,State House Clinic,50060268,Health Centre,-15.4287791,28.32549351
Lusaka,Lusaka,State Lodge,50060269,Health Centre,-15.44740873,28.44181205
Lusaka,Lusaka,Twatasha Health Post,50060279,Health Centre,-15.385653,28.245858
Central,Kabwe,Mahatma Ghandhi Memorial,10050030,Health Centre,-14.43556647,28.46149686
Lusaka,Lusaka,University of Zambia Clinic,50060281,Health Centre,-15.39222886,28.32645732
Lusaka,Lusaka,ZNS Makeni Garrison Health Post,50060311,Health Centre,,
Lusaka,Rufunsa,Bunda Bunda Health Post,50070001,Health Centre,-15.26459634,29.03036054
Lusaka,Rufunsa,Chifundo,50070002,Health Centre,-15.37004842,28.82162722
Lusaka,Rufunsa,Chimusanya Health Post,50070004,Health Centre,-15.08668468,29.57155083
Lusaka,Rufunsa,Chinyunyu,50070005,Health Centre,-15.2638769,28.99804682
Lusaka,Rufunsa,Chitemalesa Health Post,50070007,Health Centre,-15.26787953,28.91210144
Central,Kabwe,Makululu,10050031,Health Centre,-14.44525562,28.41361691
Lusaka,Rufunsa,Chiyota,50070008,Health Centre,-15.21264979,28.83653532
Lusaka,Rufunsa,Kankumba,50070009,Health Centre,-15.24311502,29.15824017
Lusaka,Rufunsa,Kanyongoloka Health Post,50070010,Health Centre,-15.2044464,29.22100796
Lusaka,Rufunsa,Kapanda Health Post,50070011,Health Centre,-15.34030214,28.82938057
Lusaka,Rufunsa,Kazemba Health Post,50070012,Health Centre,-15.34030214,28.82938057
Lusaka,Rufunsa,Luangwa Bridge Health Post,50070013,Health Centre,-14.98994096,30.21181852
Lusaka,Rufunsa,Lukwipa,50070014,Health Centre,-15.03624023,29.89820698
Lusaka,Rufunsa,Mpanshya (St. Luke) Mission Hospital,50070015,Health Centre,-15.10822526,29.72496893
Central,Kabwe,Makupu A Health Post,10050032,Health Centre,-14.41594833,28.31035
Lusaka,Rufunsa,Munyeta Health Post,50070018,Health Centre,-15.11514294,28.920999
Lusaka,Rufunsa,Mwachilele Health Post,50070019,Health Centre,-15.43757406,28.94480252
Lusaka,Rufunsa,Namanongo Health Post,50070020,Health Centre,-15.41875091,29.13247691
Lusaka,Rufunsa,Nyangwena,50070021,Health Centre,-15.4367655,28.94515296
Lusaka,Rufunsa,Rufunsa,50070022,Health Centre,-15.08156071,29.63616894
Lusaka,Rufunsa,Rutech Health Post,50070023,Health Centre,-15.27252114,29.21909519
Lusaka,Rufunsa,Shikabeta,50070024,Health Centre,-14.86288938,29.66545576
Lusaka,Rufunsa,Tengama Health Post,50070025,Health Centre,-15.36886445,29.02688968
Central,Shibuyunji,Chabota Health Post,50080001,Health Centre,-15.19673922,27.55468391
Central,Shibuyunji,Kapyanga,50080002,Health Centre,-15.12636721,27.46748893
Central,Chibombo,Kamaila Health Post,10010012,Health Centre,-15.09634356,28.30933084
Central,Kabwe,Makupu B Health Post,10050033,Health Centre,-14.38963,28.323515
Central,Shibuyunji,Kayanga Health Post,50080003,Health Centre,-15.1410988,27.60838549
Central,Shibuyunji,Mine,50080008,Health Centre,,
Central,Shibuyunji,Mukulaikwa,50080006,Health Centre,-15.2741409,27.73390048
Central,Shibuyunji,Mwembezhi,50080005,Health Centre,-15.3889,27.78592333
Central,Shibuyunji,Nampundwe,50080007,Health Centre,-15.51003199,27.92696638
Central,Shibuyunji,Shabasonje,50080009,Health Centre,-15.47487,27.77969167
Central,Shibuyunji,Shachele Health Post,50080010,Health Centre,-15.44963258,27.82977048
Central,Shibuyunji,Sichobo,50080011,Health Centre,, 
Luapula,Chembe,Chembe,40010001,Health Centre,-11.96781711,28.74586518
Luapula,Chembe,Chipete,40010002,Health Centre,-11.84547426,28.50107548
Luapula,Chembe,Kasomalwela,40010006,Health Centre,-11.9345915,28.91284119
Luapula,Chembe,Kundamfumu,40010007,Health Centre,-11.54700854,28.75334252
Luapula,Chembe,Lukola,40010008,Health Centre,-11.73373911,28.73639591
Luapula,Chienge,Chienge District Hospital,40020001,Health Centre,-8.655113652,29.16802157
Luapula,Chienge,Chipungu,40020002,Health Centre,-8.537841565,29.02240151
Luapula,Chienge,Kabole,40020003,Health Centre,-9.043690595,29.04720121
Luapula,Chienge,Kabwe,40020004,Health Centre,-9.077180699,28.98742206
Luapula,Chienge,Kalembwe,40020005,Health Centre,-8.782562711,29.11786267
Luapula,Chienge,Kapako Health Post,40020006,Health Centre,-9.105258,29.074028
Luapula,Chienge,Lambwe Chikwama Health Post,40020007,Health Centre,-8.428054894,29.37941434
Luapula,Chienge,Lambwe Chomba,40020008,Health Centre,-8.41134205,29.5991031
Luapula,Chienge,Lunchinda Health Post,40020009,Health Centre,-8.507264927,28.99097926
Luapula,Chienge,Mukunta,40020010,Health Centre,-8.886053273,29.08350734
Luapula,Chienge,Mwabu,40020011,Health Centre,-8.5696268,29.0869744
Luapula,Chienge,Puta,40020012,Health Centre,-8.688023896,29.14732179
Luapula,Chienge,Sambula,40020013,Health Centre,-8.782562711,29.11786267
Luapula,Chipili,Chipili,40030001,Health Centre,-10.73163353,29.09371995
Luapula,Chipili,Chisheta,40030002,Health Centre,-10.65074518,28.9153907
Luapula,Chipili,Kalundu,40030004,Health Centre,-10.28760626,29.3882602
Central,Kabwe,Mpima Dairy,10050036,Health Centre,-14.36311404,28.57785314
Luapula,Chipili,Kamwami Health Post,40031003,Health Centre,-10.477356,29.04787
Luapula,Chipili,Kaoma Makasa,40030005,Health Centre,-10.56231135,29.31339511
Luapula,Chipili,Luminu,40030006,Health Centre,-10.38471738,29.16549683
Luapula,Chipili,Lupososhi,40030007,Health Centre,-10.35055115,29.47501305
Luapula,Chipili,Mukabi Health Post,40030008,Health Centre,-10.41407733,28.91068842
Luapula,Chipili,Mukanga Health Post,40030009,Health Centre,-10.25985092,29.18529719
Luapula,Chipili,Mukonshi,40030010,Health Centre,-10.14324032,29.16551407
Luapula,Chipili,Mupeta,40030012,Health Centre,-10.40848283,29.01561234
Central,Kabwe,Mpima Correctional,10050035,Health Centre,,
Luapula,Chipili,Musalango Health Post,40030013,Health Centre,-10.29866573,28.91343427
Luapula,Chipili,Mutipula,40030015,Health Centre,-10.60253687,28.9842602
Luapula,Chipili,Mwenda,40030016,Health Centre,-10.48044399,29.18267978
Luapula,Kawambwa,Buyaka Health Post,40040003,Health Centre,-9.735878333,29.40385
Luapula,Kawambwa,Chama,40040001,Health Centre,-9.777655,29.42473333
Luapula,Kawambwa,Chibote,40040002,Health Centre,-9.863755,29.54712833
Luapula,Kawambwa,Chimpempe,40040004,Health Centre,-9.54766,29.43202333
Luapula,Kawambwa,Chimpili,40040005,Health Centre,-10.01353667,29.89878
Luapula,Kawambwa,Chitondo,40040006,Health Centre,-9.9095,29.27883
Central,Kabwe,Mukobeko Township,10050039,Health Centre,-14.41913827,28.40915802
Luapula,Kawambwa,Chitotela Health Post,40040007,Health Centre,-9.624773333,29.45595333
Luapula,Kawambwa,Kabanda,40040008,Health Centre,-9.660711667,29.44569833
Luapula,Kawambwa,Kabila,40040009,Health Centre,-9.796843333,29.31109333
Luapula,Kawambwa,Kala Refugee Camp,40040010,Health Centre,,
Luapula,Kawambwa,Kanengo,40040011,Health Centre,-9.953526667,29.34632333
Luapula,Kawambwa,Kapako Health Post,40040012,Health Centre,-9.716565,29.20506833
Luapula,Kawambwa,Kawambwa District Hospital,40040013,Health Centre,-9.7998,29.074835
Luapula,Kawambwa,Kawambwa HAHC,40040014,Health Centre,-9.793458333,29.07675
Luapula,Kawambwa,Lusambo Health Post,40040016,Health Centre,-9.815676667,29.12663333
Luapula,Kawambwa,Mambwe Health Post,40040018,Health Centre,-9.674621667,29.62279167
Luapula,Kawambwa,Mufwaya,40040019,Health Centre,-9.677256667,29.08427667
Luapula,Kawambwa,Munkanta,40040020,Health Centre,-9.80431,29.051125
Luapula,Kawambwa,Mushota Zonal,40040021,Health Centre,, 
Luapula,Kawambwa,Musungu,40040022,Health Centre,-10.19427333,29.70757
Luapula,Kawambwa,Muyembe,40040023,Health Centre,-9.992125,29.11726667
Luapula,Kawambwa,Shikalaba Health Post,40040024,Health Centre,-9.799655,29.226685
Central,Kabwe,Munga Health Post,10050042,Health Centre,-14.46762645,28.23481328
Luapula,Lunga,Bwalya Mponda,40050001,Health Centre,-11.66778741,30.06812096
Luapula,Lunga,Kalima Nkonde,40050002,Health Centre,-11.44171883,30.06845355
Luapula,Lunga,Kasoma Lunga,40050003,Health Centre,-11.40707037,30.1391834
Luapula,Lunga,Nsalushi,40050004,Health Centre,-11.54301867,30.32072067
Luapula,Mansa,Buntungwa,40060003,Health Centre,-11.20572333,28.88253167
Luapula,Mansa,Chansa Health Post,40060005,Health Centre,-11.22519277,28.51417383
Luapula,Mansa,Chikonshi Health Post,40060006,Health Centre,-11.33796682,28.65915421
Luapula,Mansa,Chisembe,40060007,Health Centre,-11.07524264,28.91067929
Central,Kabwe,Munyama Health Post,10050043,Health Centre,-14.650498,28.42341
Luapula,Mansa,Chisunka,40060009,Health Centre,-10.76601881,28.8312565
Luapula,Mansa,Fibale Health Post,40060010,Health Centre,-11.22233,28.86430167
Luapula,Mansa,Fimpulu,40060011,Health Centre,-11.40716626,28.82668273
Luapula,Mansa,James Health Post,40060014,Health Centre,-11.40418414,29.27763968
Luapula,Mansa,Kabunda,40060015,Health Centre,-11.21137774,28.79353603
Luapula,Mansa,Kafula Health Post,40060016,Health Centre,-11.30718231,29.36531338
Luapula,Mansa,Kalaba,40060017,Health Centre,, 
Luapula,Mansa,Kale Health Post,40060018,Health Centre,-11.271835,29.201562
Luapula,Mansa,Kalyongo,40060019,Health Centre,-11.509423,28.40180791
Central,Kabwe,Nakoli,10050044,Health Centre,-14.40780905,28.44984616
Luapula,Mansa,Kansenga,40060020,Health Centre,-11.32163363,29.180896
Luapula,Mansa,Kapisha Health Post,40060021,Health Centre,-11.34568856,29.30887559
Luapula,Mansa,Kasanse Health Post,40060022,Health Centre,-11.28798834,29.56374345
Luapula,Mansa,Katangwe,40060023,Health Centre,-11.29034671,28.98271822
Luapula,Mansa,Lubende,40060026,Health Centre,-11.27704526,29.28537014
Luapula,Mansa,Mabo Health Post,40060027,Health Centre,-11.45568432,28.43197572
Luapula,Mansa,Mabumba,40060028,Health Centre,-11.26628528,29.05366139
Luapula,Mansa,Malamba Health Post,40060029,Health Centre,-11.47640639,28.79269335
Central,Chibombo,Kanwanjiba Health Post,10010013,Health Centre,-15.14574924,27.81432343
Central,Kabwe,Natuseko,10050045,Health Centre,-14.40304803,28.459674
Luapula,Mansa,Mano,40060030,Health Centre,-10.89634366,29.0014382
Luapula,Mansa,Mansa General Hospital,40060032,Health Centre,-11.246015,28.895245
Luapula,Mansa,Mantumbusa,40060033,Health Centre,-11.22446449,28.97086705
Luapula,Mansa,Masaba Health Post,40060034,Health Centre,-11.23846333,28.78015
Luapula,Mansa,Mashimi Health Post,40060035,Health Centre,-11.3790407,29.37988339
Luapula,Mansa,Matanda,40060036,Health Centre,-11.37843452,28.46097945
Luapula,Mansa,Matelo Health Post,40060037,Health Centre,-11.1848581,28.71666992
Luapula,Mansa,Mikula Health Post,40060039,Health Centre,-11.34486919,28.92669132
Luapula,Mansa,Moloshi,40060040,Health Centre,-11.20752969,29.45853431
Central,Kabwe,Ngungu,10050047,Health Centre,-14.3927912,28.44410144
Luapula,Mansa,Mufuma Maternity Annex Health Post,40060041,Health Centre,-11.27544079,29.15536975
Luapula,Mansa,Musaba Health Post,40060042,Health Centre,-11.23846333,28.78015
Luapula,Mansa,Musaila,40060043,Health Centre,-11.35445444,29.48882466
Luapula,Mansa,Mutiti,40060044,Health Centre,-11.14441642,28.95176418
Luapula,Mansa,Mutwewankoko,40060045,Health Centre,-10.69605977,28.92489142
Luapula,Mansa,Muwang'uni,40060046,Health Centre,-11.2847947,28.86933555
Central,Kabwe,Nkhrumah Teachers College Health Post,10050048,Health Centre,-14.44642716,28.46678511
Luapula,Mansa,Namwandwe Health Post,40060047,Health Centre,-11.20611667,28.91947833
Luapula,Mansa,Ndoba,40060048,Health Centre,-11.26679549,29.52824391
Luapula,Mansa,Paul Mambilima,40060050,Health Centre,-11.13561959,28.55463529
Luapula,Mansa,Sande Health Post,40060051,Health Centre,-11.25080167,28.93166167
Luapula,Mansa,Senama,40060052,Health Centre,-11.17775333,28.884805
Luapula,Mansa,Sepe Health Post,40060053,Health Centre,-11.291659,28.497505
Luapula,Mansa,Shoti Health Post,40060054,Health Centre,-11.22203114,29.0495323
Luapula,Mansa,Tayali Health Post,40060055,Health Centre,-11.27845,28.92958167
Luapula,Milenge,Changwe Lungo Health Post,40070001,Health Centre,-12.33721272,29.1662503
Luapula,Milenge,Chibende,40070002,Health Centre,-11.87074341,29.04899487
Luapula,Milenge,Kabange,40070003,Health Centre,-11.43870218,29.00384903
Luapula,Milenge,Kapalala,40070004,Health Centre,, 
Luapula,Milenge,Lungo Mukuta,40070005,Health Centre,, 
Luapula,Milenge,Lwela,40070006,Health Centre,-11.82414163,29.0788364
Central,Kabwe,Pollen,10050052,Health Centre,-14.44116856,28.46286111
Luapula,Milenge,Milenge District Hospital,40070007,Health Centre,-12.37080051,29.4424242
Luapula,Milenge,Milenge East 7,40070008,Health Centre,-12.416325,29.485045
Luapula,Milenge,Mulumbi,40070009,Health Centre,-11.55640204,29.16615323
Luapula,Milenge,Sokontwe,40070010,Health Centre,-12.30616833,29.45139167
Luapula,Mwansabombwe,Chipunka,40080001,Health Centre,-10.01360516,28.70501898
Luapula,Mwansabombwe,Kazembe Zonal,40080002,Health Centre,-9.82010752,28.7613327
Luapula,Mwansabombwe,Lufubu,40080003,Health Centre,-9.893433516,28.79509495
Luapula,Mwansabombwe,Mbereshi Mission Hospital,40080005,Health Centre,-9.75328703,28.79638783
Luapula,Mwansabombwe,Mbereshi Mission HAHC,40080004,Health Centre,-9.75328069,28.79640257
Luapula,Mwansabombwe,Mukamba,40080006,Health Centre,-9.74829767,28.76614836
Luapula,Mwansabombwe,Salanga,40080007,Health Centre,-9.962209971,28.73053945
Luapula,Mwense,Chalwe,40090001,Health Centre,-10.60600586,28.64776812
Luapula,Mwense,Chibondo,40090002,Health Centre,-10.72499719,28.67098785
Luapula,Mwense,Kabila Health Post,40090003,Health Centre,-10.5578342,28.69399577
Central,Kabwe,Railway Surgery,10050054,Health Centre,-14.447915,28.44213667
Luapula,Mwense,Kankomba Health Post,40090004,Health Centre,-10.33712667,28.67905833
Luapula,Mwense,Kapamba,40090005,Health Centre,-10.17733667,28.76555333
Luapula,Mwense,Kashiba,40090006,Health Centre,-10.44748953,28.65509888
Luapula,Mwense,Katuta,40090007,Health Centre,-10.69542299,28.59797608
Luapula,Mwense,Kawama,40090008,Health Centre,-10.09489,28.63724
Luapula,Mwense,Loto Health Post,40090009,Health Centre,-10.29355833,28.727125
Luapula,Mwense,Luamfwe Health Post,40090010,Health Centre,-10.059631,28.673138
Luapula,Mwense,Lubunda,40090011,Health Centre,-10.31223333,28.67323333
Luapula,Mwense,Lukwesa,40090012,Health Centre,-10.168825,28.636095
Luapula,Mwense,Mambilima Mission Hospital,40090013,Health Centre,-10.527264,28.652403
Central,Kabwe,Ranchhod Hospice,10050055,Health Centre,-14.45175912,28.46455903
Luapula,Mwense,Mubende,40090014,Health Centre,-10.28761833,28.77848667
Luapula,Mwense,Mununshi,40090015,Health Centre,-10.01651833,28.694275
Luapula,Mwense,Musangu Zonal,40090017,Health Centre,-10.24696833,28.64935167
Luapula,Mwense,Mwense District Hospital,40090018,Health Centre,-10.35948667,28.69394833
Luapula,Mwense,Mweshi Health Post,40090020,Health Centre,-10.69864616,28.70190374
Luapula,Nchelenge,Chabilikila,40100002,Health Centre,-9.54817,28.73696708
Luapula,Nchelenge,Chisenga Island,40100003,Health Centre,-9.549099325,28.60318334
Luapula,Nchelenge,Kabalenge,40100004,Health Centre,-9.770244326,28.86143231
Luapula,Nchelenge,Kabuta,40100005,Health Centre,-9.174685992,28.84779393
Luapula,Nchelenge,Kafutuma,40100006,Health Centre,-9.241565531,28.80735053
Luapula,Nchelenge,Kambwali,40100007,Health Centre,-9.413927493,28.73452165
Luapula,Nchelenge,Kanyembo,40100008,Health Centre,-9.631739625,28.74348423
Luapula,Nchelenge,Kapambwe Health Post,40100009,Health Centre,-9.54316982,28.70613856
Luapula,Nchelenge,Kashikishi HAHC,40101001,Health Centre,-9.318647,28.749435
Luapula,Nchelenge,Kilwa Island,40100013,Health Centre,-9.271589383,28.40808349
Luapula,Nchelenge,Lushiba Health Post,40100014,Health Centre,-9.33587988,28.74535366
Luapula,Nchelenge,Mulwe Health Post,40100015,Health Centre,-9.45714942,28.74847821
Central,Kabwe,ZAF Kabwe,10050056,Health Centre,-15.436095,28.33617167
Luapula,Nchelenge,Nchelenge,40100017,Health Centre,, 
Luapula,Nchelenge,St. Paul's Mission General Hospital,40100019,Health Centre,-9.306690063,28.74129681
Luapula,Chifunabuli,Chibuye,40110001,Health Centre,-11.14220333,29.47934167
Luapula,Samfya,Chikunyu Health Post,40110002,Health Centre,-11.47082848,29.65923635
Luapula,Chifunabuli,Chimanda,40110004,Health Centre,-10.82169833,29.486035
Luapula,Samfya,Chimembe,40110005,Health Centre,-11.5199352,29.78610481
Luapula,Samfya,Chinsaka,40110006,Health Centre,-11.5638376,29.79634337
Luapula,Samfya,Chipako,40110007,Health Centre,-11.54865372,29.67585091
Luapula,Chifunabuli,Chishi Island,40110008,Health Centre,-11.08542763,29.84195709
Central,Chibombo,Kaparu,10010014,Health Centre,-14.97392179,27.75370533
Luapula,Samfya,Fwaka East 8,40110009,Health Centre,-12.14958942,29.43861333
Luapula,Samfya,Kabongo,40110010,Health Centre,-11.75995789,29.51318047
Luapula,Samfya,Kalasa Mukoso,40110011,Health Centre,-11.81811284,29.59431181
Luapula,Samfya,Kapata East 1,40110012,Health Centre,-11.63748182,29.73878164
Luapula,Samfya,Kapata,40110013,Health Centre,-11.68174904,29.71140344
Luapula,Samfya,Kasanka,40110016,Health Centre,-11.96782784,29.51288773
Luapula,Samfya,Kasoma Bangweulu Health Post,40110017,Health Centre,-11.3865768,29.5682348
Luapula,Chifunabuli,Kasuba,40110018,Health Centre,-10.74684318,29.62620033
Luapula,Samfya,Katanshya,40110019,Health Centre,-11.45766107,29.72480915
Luapula,Chifunabuli,Lubwe Mission HAHC,40110021,Health Centre,, 
Luapula,Chifunabuli,Lubwe Mission Hospital,40110020,Health Centre,-11.11911,29.64579833
Luapula,Samfya,Mabo Kunda,40110022,Health Centre,-11.7369552,29.62152201
Luapula,Samfya,Mano Health Post,40110023,Health Centre,-11.4962065,29.55136844
Luapula,Chifunabuli,Mbabala Island,40110024,Health Centre,-11.22001655,29.80126731
Luapula,Chifunabuli,Miponda,40110025,Health Centre,-10.94085667,29.547375
Luapula,Samfya,Mpanta,40110026,Health Centre,-11.45676559,29.81839008
Luapula,Chifunabuli,Mundubi,40110027,Health Centre,-11.175435,29.573995
Luapula,Samfya,Mungulube,40110028,Health Centre,-11.60906487,29.44822346
Central,Kabwe,ZNS Kabwe,10050057,Health Centre,,
Luapula,Samfya,Mushili,40110029,Health Centre,-12.14484809,29.55229937
Luapula,Chifunabuli,Mwansakombe,40110030,Health Centre,-10.88895273,29.66035549
Luapula,Chifunabuli,Nambale,40110031,Health Centre,-10.74523572,29.78096891
Luapula,Samfya,Ninge,40110032,Health Centre,-11.66306969,29.62815758
Luapula,Samfya,Njipi,40110033,Health Centre,-11.53113471,29.71792098
Luapula,Samfya,Samfya District Hospital,40110034,Health Centre,-11.36948498,29.55388645
Luapula,Samfya,Samfya Stage II,40110035,Health Centre,-11.36983177,29.55425398
Luapula,Chifunabuli,Shikamushile,40110036,Health Centre,-10.97293072,29.69584781
Muchinga,Chama,Buli,55010001,Health Centre,-11.34843882,33.08275868
Muchinga,Chama,Chama District Hospital,55010002,Health Centre,-11.22782739,33.17449912
Central,Kapiri-Mposhi,Chambulumina Health Post,10060002,Health Centre,-13.92981283,28.7854731
Muchinga,Chama,Chama HAHC,55010003,Health Centre,-11.21247527,33.15650184
Muchinga,Chama,Chibale,55010004,Health Centre,-10.49528274,32.78782191
Muchinga,Chama,Chifunda,55010005,Health Centre,-11.87296187,32.57566511
Muchinga,Chama,Chigoma,55010006,Health Centre,-11.6893519,32.70167587
Muchinga,Chama,Chikwa,55010007,Health Centre,-11.68202774,32.77472332
Muchinga,Chama,Chilubanama,55010008,Health Centre,-10.68707236,32.37175981
Muchinga,Chama,Chitukula Health Post,55010009,Health Centre,-11.44746657,33.03847223
Muchinga,Chama,Fulaza,55010010,Health Centre,-11.44746657,33.03847223
Muchinga,Chama,Kalovya Health Post,55010011,Health Centre,-11.53036402,33.22690168
Muchinga,Chama,Kambombo,55010012,Health Centre,-11.53036402,33.22690168
Central,Kapiri-Mposhi,Chankomo,10060003,Health Centre,-13.90257868,29.04772057
Muchinga,Chama,Kambwili,55010013,Health Centre,-11.09404878,33.15091403
Muchinga,Chama,Kamfutu Health Post,55010014,Health Centre,-11.25144818,33.35891197
Muchinga,Chama,Kanyelele,55010015,Health Centre,-10.74762657,33.48305441
Muchinga,Chama,Kapichila Senga,55010016,Health Centre,-11.54609027,32.88515121
Muchinga,Chama,Kapilingizya Health Post,55010017,Health Centre,-11.05197093,33.04815441
Muchinga,Chama,Kasela Health Post,55010018,Health Centre,-12.00577277,32.70468673
Muchinga,Chama,Lundu,55010019,Health Centre,-10.998686,32.38344567
Muchinga,Chama,Manga Mission,55010020,Health Centre,-11.77522916,32.84569457
Muchinga,Chama,Mapamba,55010021,Health Centre,-12.1216132,32.43910546
Muchinga,Chama,Mphyanakunda,55010022,Health Centre,-11.23000218,32.80691343
Central,Kapiri-Mposhi,Chapusha Health post,10060004,Health Centre,-14.05364453,28.18036041
Muchinga,Chama,Mulilo,55010023,Health Centre,-10.53992355,32.94629443
Muchinga,Chama,Mwalala,55010024,Health Centre,-11.17423074,32.90495714
Muchinga,Chama,Nthonkho,55010025,Health Centre,-11.02140078,33.03938108
Muchinga,Chama,Pondo,55010026,Health Centre,-11.48421829,32.64285914
Muchinga,Chama,Sitwe,55010027,Health Centre,-10.83140168,33.19072396
Muchinga,Chama,Tembwe,55010028,Health Centre,-11.3602859,32.88941097
Muchinga,Chinsali,Chinsali General Hospital,55020001,Health Centre,-10.56084966,32.07184097
Muchinga,Chinsali,Chinsali HAHC,55020002,Health Centre,-10.55243557,32.06659978
Muchinga,Chinsali,Chunga,55020003,Health Centre,-9.82919818,32.51202348
Muchinga,Chinsali,Kalela Health Post,55020004,Health Centre,-9.905631161,32.26109109
Central,Kapiri-Mposhi,Chawama (Kapiri-Mposhi),10060005,Health Centre,-13.94075496,28.66728068
Muchinga,Chinsali,Kalwala Health Post,55020005,Health Centre,-10.59543261,32.14073396
Muchinga,Chinsali,Lubwa,55020006,Health Centre,-10.62660798,32.11297587
Muchinga,Chinsali,Mulilansolo,55020008,Health Centre,-10.2534484,32.34804451
Muchinga,Chinsali,Mundu,55020009,Health Centre,-10.32699789,32.24996538
Muchinga,Chinsali,Munsanya Health Post,55020010,Health Centre,-10.36084752,32.39882793
Muchinga,Chinsali,Nkula Health Post,55020012,Health Centre,-10.6441348,31.9438809
Muchinga,Chinsali,Nkweto Health Post,55020007,Health Centre,-10.25444834,32.30018283
Muchinga,Isoka,Isoka District Hospital,55030002,Health Centre,-10.162215,32.62828
Muchinga,Isoka,Kafwimbi,55030003,Health Centre,-10.17562,32.56122
Muchinga,Isoka,Kalungu,55030004,Health Centre,-9.687653333,32.70791833
Central,Kapiri-Mposhi,Chibwe,10060006,Health Centre,-14.31581348,28.70979474
Muchinga,Isoka,Kampumbu,55030005,Health Centre,-10.25577667,33.00838833
Muchinga,Isoka,Kantenshya Health Post,55030006,Health Centre,-10.07896333,32.57575833
Muchinga,Isoka,Kapililonga Health Post,55030007,Health Centre,-9.993411667,32.69974
Muchinga,Isoka,Kasoka,55030008,Health Centre,-10.15799333,32.63532833
Muchinga,Isoka,Lualizi Health Post,55030010,Health Centre,-10.26768833,32.75795667
Muchinga,Isoka,Mwenekombe Health Post,55030011,Health Centre,-9.976448333,32.84683667
Muchinga,Isoka,Nzoche Health Post,55030012,Health Centre,-9.691265,33.14497333
Muchinga,Isoka,Sansamwenje Health Post,55030013,Health Centre,-9.818643333,32.75569
Muchinga,Mafinga,Chanama Health Post,55060001,Health Centre,-10.29846833,33.24293
Central,Kapiri-Mposhi,Chilumba,10060007,Health Centre,-14.3963015,28.19346565
Muchinga,Mafinga,Kalyamani Health Post,55060003,Health Centre,-10.37562057,33.49809172
Muchinga,Mafinga,Mulekatembo,55060004,Health Centre,-10.13866333,33.33683
Muchinga,Mafinga,Muyombe,55060005,Health Centre,-10.5847398,33.4675454
Muchinga,Mafinga,Mweniwisi Health Post,55060006,Health Centre,-10.08496333,33.14633333
Muchinga,Mafinga,Nachisitu,55060007,Health Centre,-9.910368333,33.23813667
Muchinga,Mafinga,Thendere,55060009,Health Centre,-10.25678,33.37253167
Muchinga,Mafinga,Zumbe,55060012,Health Centre,-10.51442517,33.32397586
Muchinga,Kanchibiya,Chalabesa,55040001,Health Centre,-11.48188727,31.08471837
Muchinga,Mpika,Chaya Health Post,55050001,Health Centre,-11.83650025,31.44666944
Muchinga,Mpika,Chibansa,55070001,Health Centre,-11.90657982,31.43649277
Muchinga,Kanchibiya,Chikakala Health Post,55040002,Health Centre,-11.40666177,31.23618835
Muchinga,Mpika,Chikwanda Health Post,55070002,Health Centre,-11.732576,31.472887
Muchinga,Mpika,Chilonga Mission General Hospital,55070003,Health Centre,-12.02747875,31.33959978
Muchinga,Mpika,Chilonga OPD,55070004,Health Centre,-12.02755566,31.33980095
Muchinga,Kanchibiya,Chinkobo Health Post,55040003,Health Centre,-11.33675187,30.67214619
Muchinga,Mpika,Chitulika Health Post,55070005,Health Centre,-11.82526589,31.46294653
Muchinga,Kanchibiya,Kabinga,55040005,Health Centre,-11.79217302,30.54440377
Muchinga,Mpika,Kalimba Health Post,55050003,Health Centre,-11.83648881,31.4466738
Muchinga,Mpika,Kamwanya Health Post,55070006,Health Centre,-11.82278399,31.46634113
Central,Chibombo,Kapila Health Post,10010015,Health Centre,-15.188929,28.28046
Central,Kapiri-Mposhi,Chishinka,10060009,Health Centre,-14.31196041,29.08329873
Muchinga,Kanchibiya,Kaonda,55040006,Health Centre,-11.84249951,31.45904406
Muchinga,Mpika,Kasenga,55070007,Health Centre,-12.1187765,31.17250909
Muchinga,Kanchibiya,Kopa,55040007,Health Centre,-11.77396043,30.83579118
Muchinga,Lavushi Manda,Lubunga,55040008,Health Centre,-12.80032992,31.01804368
Muchinga,Kanchibiya,Luchembe Health Post,55040009,Health Centre,-11.81212348,31.26234551
Muchinga,Mpika,Lufila,55050006,Health Centre,-11.32749611,32.02161711
Muchinga,Lavushi Manda,Lukulu,55040010,Health Centre,-12.82630607,30.86827277
Muchinga,Kanchibiya,Mapoma,55040011,Health Centre,-11.84248761,31.45904104
Muchinga,Kanchibiya,Mbati,55040012,Health Centre,-11.19532442,30.75399801
Muchinga,Mpika,Michael Chilufya Sata Hospital,55070008,Health Centre,-11.82300044,31.37109168
Central,Kapiri-Mposhi,Chitaba,10060010,Health Centre,-14.06185319,28.34523024
Muchinga,Kanchibiya,Mpepo,55040013,Health Centre,-11.08055677,31.11677105
Muchinga,Mpika,Mpika District Hospital,5507XX02,Health Centre,-11.83874527,31.45725369
Muchinga,Mpika,Mpika,55070009,Health Centre,-11.83890169,31.45752882
Muchinga,Lavushi Manda,Mpumba,55040014,Health Centre,-12.61686936,31.00418505
Muchinga,Mpika,Mukungule,55050009,Health Centre,-11.59703374,31.92447531
Muchinga,Lavushi Manda,Muwele,55040016,Health Centre,-11.84234688,31.45856788
Muchinga,Mpika,Nabwalya,55050010,Health Centre,-11.83650352,31.44666583
Muchinga,Mpika,Tazara Residential,55070011,Health Centre,-11.84644416,31.40023698
Muchinga,Mpika,ZCA,55070012,Health Centre,-11.73483973,31.48317883
Muchinga,Mpika,ZNS Mpika,55070013,Health Centre,-11.96501814,31.33003182
Central,Kapiri-Mposhi,Kafinda Health Post (Kapiri-Mposhi),10060011,Health Centre,-14.13169384,29.02766264
Muchinga,Nakonde,Chilolwa,55080001,Health Centre,-9.571401,32.62485863
Muchinga,Nakonde,Chitamba Health Post,55080002,Health Centre,-9.36646744,32.60975194
Muchinga,Nakonde,Chozi,55080003,Health Centre,-9.39369792,32.26259216
Muchinga,Nakonde,Ibrahim Health Post,55080004,Health Centre,-9.34738598,32.80866173
Muchinga,Nakonde,Kaombwe Health Post,55080006,Health Centre,-9.45702772,32.88207846
Muchinga,Nakonde,Mayembe Health Post,55080008,Health Centre,-9.55085735,32.74350976
Muchinga,Nakonde,Mukalizi Health Post,55080009,Health Centre,-9.13394291,32.19014037
Muchinga,Nakonde,Mwenichanka,55080010,Health Centre,, 
Muchinga,Nakonde,Mwenzo,55080011,Health Centre,-9.32877287,32.68774186
Muchinga,Nakonde,Nakonde District Hospital,55080012,Health Centre,-9.351187474,32.70430293
Central,Kapiri-Mposhi,Kakulu,10060012,Health Centre,-14.08824112,28.60015341
Muchinga,Nakonde,Nakonde,55080013,Health Centre,-9.328564869,32.75449471
Muchinga,Nakonde,Ntantumbila,55080014,Health Centre,-9.20515497,32.28347463
Muchinga,Nakonde,Shemu,55080015,Health Centre,-9.52808059,32.90196428
Muchinga,Nakonde,Waitwika,55080016,Health Centre,-9.517839156,32.69645081
Muchinga,Shiwang'andu,Ilondola,55090003,Health Centre,-9.3534411,32.53316112
Muchinga,Shiwang'andu,Kabanda (Shiwang'andu),55090004,Health Centre,-10.85116956,31.28505503
Muchinga,Shiwang'andu,Kapisha Health Post (Shiwang'andu),55090005,Health Centre,-11.18514877,31.59748062
Muchinga,Shiwang'andu,Konja,55090006,Health Centre,-10.91738321,31.85956745
Muchinga,Shiwang'andu,Lukaka,55090007,Health Centre,-11.24460316,31.46154988
Central,Kapiri-Mposhi,Kampumba,10060013,Health Centre,-14.56262318,29.00553645
Muchinga,Shiwang'andu,Matumbo,55090009,Health Centre,-10.96326888,32.03365202
Muchinga,Shiwang'andu,Mukwikile Health Post,55090010,Health Centre,-11.3483565,31.7723825
Muchinga,Shiwang'andu,Mulanga,55090011,Health Centre,-10.97961288,32.04636125
Muchinga,Shiwang'andu,Mwika,55090012,Health Centre,-10.85541715,31.63920049
Muchinga,Shiwang'andu,Philip Health Post,55090013,Health Centre,-11.11704998,31.90821709
Muchinga,Shiwang'andu,Sele Health Post,55090014,Health Centre,-10.84141617,31.40890552
Northern,Chilubi,Chaba,60010001,Health Centre,-10.97904447,30.08548325
Northern,Chilubi,Chifwenge,60010002,Health Centre,-10.83104931,30.14972129
Northern,Chilubi,Chilubi Mainland District Hospital,60010003,Health Centre,-10.97090484,30.10327304
Central,Kapiri-Mposhi,Kapiri-Mposhi District Hospital,10060014,Health Centre,-13.89647402,28.6700521
Northern,Chilubi,Chilubi,60010004,Health Centre,-11.11342046,29.95813118
Northern,Chilubi,Chitunkubwe Health Post,60010005,Health Centre,-10.81108702,30.03502357
Northern,Chilubi,Fube,60010006,Health Centre,-11.36822679,30.43409735
Northern,Chilubi,Kawena Health Post,60010008,Health Centre,-11.21626807,30.01712738
Northern,Chilubi,Matipa,60010009,Health Centre,-10.85396372,30.30108899
Northern,Chilubi,Mayuka,60010010,Health Centre,-11.299946,30.6330971
Northern,Chilubi,Mofu,60010011,Health Centre,-10.22462628,30.91593026
Northern,Chilubi,Mubili Health Post,60010012,Health Centre,-10.83549074,30.46860481
Northern,Chilubi,Nsumbu,60010014,Health Centre,-11.20001685,30.30177112
Northern,Chilubi,Santa Maria Mission,60010015,Health Centre,-11.11467919,30.0171596
Central,Kapiri-Mposhi,Kapiri-Mposhi,10060015,Health Centre,-13.96645138,28.67745948
Northern,Kaputa,Chocha Health Post,60020001,Health Centre,-8.43805448,29.78523895
Northern,Kaputa,Kafwimbi Health Post,60020002,Health Centre,-9.03260076,29.38292436
Northern,Kaputa,Kalaba,60020003,Health Centre,-8.41687398,29.87506351
Northern,Kaputa,Kapala Health Post,60020004,Health Centre,-8.490368603,29.89911027
Northern,Kaputa,Kapepula Health Post,60020005,Health Centre,-8.46087556,30.09161723
Northern,Kaputa,kaputa district Hospital,60020007,Health Centre,-8.470573704,29.66357301
Northern,Kaputa,Kaputa,60020006,Health Centre,-8.46997323,29.66342822
Northern,Kaputa,Kasongole,60020008,Health Centre,-8.89046202,29.4818623
Northern,Kaputa,Mukupa Katandula,60020009,Health Centre,-8.996289621,29.46174241
Northern,Kaputa,Nkosha Health Post,60020010,Health Centre,-9.13642972,29.22444562
Northern,Kasama,Army,60030001,Health Centre,-10.2197128,31.1686433
Northern,Kasama,Chanda Mukulu Health Post,60030002,Health Centre,-10.82009705,31.12703964
Northern,Kasama,Chilongoshi,60030003,Health Centre,-9.985283619,30.80029872
Northern,Kasama,Chiombo,60030005,Health Centre,-10.35475797,30.81010438
Northern,Kasama,Chisanga,60030006,Health Centre,-10.24565136,31.19574518
Northern,Kasama,College Health Post,60030008,Health Centre,-10.220923,31.211774
Northern,Kasama,Kasakula,60030010,Health Centre,, 
Northern,Kasama,Kasama General Hospital,60030011,Health Centre,-10.21171496,31.18132688
Central,Kapiri-Mposhi,Kawama (Kapiri-Mposhi),10060018,Health Centre,-13.98783293,28.68939367
Northern,Kasama,Kasonde Chisuna Health Post,60030014,Health Centre,-10.2829919,31.04705667
Northern,Kasama,Kasonde Mutokwa Health Post,60030015,Health Centre,-10.72710553,29.50950156
Northern,Kasama,Kateshi,60030016,Health Centre,-10.01129674,31.20527733
Northern,Kasama,Location,60030017,Health Centre,-10.22214972,31.18504182
Northern,Kasama,Lubushi Mission Hospital,60030018,Health Centre,-10.25884309,30.46631073
Northern,Kasama,Lukashya,60030020,Health Centre,-10.21364154,31.22203393
Northern,Kasama,Lukupa,60030021,Health Centre,-10.12809433,31.16489592
Northern,Kasama,Lwabwe Health Post,60030022,Health Centre,-10.44121948,31.21424438
Northern,Kasama,Mbusa,60030023,Health Centre,, 
Central,Kapiri-Mposhi,Likumbi Health Post,10060019,Health Centre,-14.38667069,28.94341031
Northern,Kasama,Milima,60030024,Health Centre,-10.15414692,31.2306802
Northern,Kasama,Misambo Health Post,60030025,Health Centre,-10.08202467,31.17631844
Northern,Kasama,Misamfu,60030026,Health Centre,-10.16879709,31.23040884
Northern,Kasama,Misengo,60030027,Health Centre,-9.907747415,30.70017074
Northern,Kasama,Monica Chisando Health Post,60030028,Health Centre,-10.224674,30.91589
Northern,Kasama,Mulanshi,60030029,Health Centre,-10.33025901,31.29269695
Northern,Kasama,Mulenga Hills Health Post,60030030,Health Centre,-10.21142009,31.20821469
Northern,Kasama,Mulobola,60030031,Health Centre,-10.64035642,31.08073104
Northern,Kasama,Mumbi Mfumu Health Post,60030032,Health Centre,-10.499229,31.450134
Northern,Kasama,Mumbi Mukulu Health post,60030033,Health Centre,-11.004266,30.773926
Central,Chibombo,Kapopo Health Post,10010016,Health Centre,-15.26929144,28.19412801
Central,Kapiri-Mposhi,Luanshimba,10060020,Health Centre,-14.22412078,28.57162795
Northern,Kasama,Munkonge,60030034,Health Centre,-10.30214567,30.68770296
Northern,Kasama,Musa,60030035,Health Centre,-10.30570289,31.21190073
Northern,Kasama,Mwamba,60030036,Health Centre,-10.10053093,31.05068548
Northern,Kasama,Mwasha Health Post,60030037,Health Centre,-10.417504,30.901708
Northern,Kasama,Nkolemfumu,60030038,Health Centre,-10.57793279,31.17338794
Northern,Kasama,Tazara,60030039,Health Centre,-10.24482544,31.20627984
Northern,Kasama,ZNS Chishimba,60030040,Health Centre,-10.20703923,31.22310829
Northern,Luwingu,Chikoyi,60040001,Health Centre,-10.26972399,29.92788257
Northern,Lupososhi,Chungu,60040002,Health Centre,-10.59580353,29.63829355
Central,Kapiri-Mposhi,Lukomba Health Post,10060021,Health Centre,-13.87816455,28.90010469
Northern,Luwingu,Fikonkonta Health Post,60040003,Health Centre,-10.45997201,30.14365961
Northern,Luwingu,Ipusukilo,60040004,Health Centre,-10.37884498,29.88340832
Northern,Lupososhi,Kalaba Health Post,60040005,Health Centre,-10.625413,29.60914
Northern,Luwingu,Kasonde Kombo-Kombo Health Post,60040006,Health Centre,-10.75525861,30.23298657
Northern,Lupososhi,Katuta,60040007,Health Centre,-10.72710553,29.50950156
Northern,Luwingu,Laurent Chita Health Post,60040008,Health Centre,-10.289924,30.214474
Northern,Luwingu,Luena,60040009,Health Centre,-10.65193692,30.20778333
Northern,Lupososhi,Lufubu Health Post,60040010,Health Centre,-10.32738184,29.68968016
Northern,Lupososhi,Lukolongo Health Post,60040011,Health Centre,-10.97356576,29.26043599
Northern,Lupososhi,Lundu Health Post,60040012,Health Centre,-10.73767256,29.81545723
Central,Kapiri-Mposhi,Lunchu B,10060022,Health Centre,-14.00112186,28.88423202
Northern,Luwingu,Luwingu District Hospital,60040013,Health Centre,-10.25460591,29.92420364
Northern,Luwingu,Menga Health Post,60040014,Health Centre,-10.19297885,30.12440225
Northern,Lupososhi,Mumba Health Post,60040015,Health Centre,-10.33827708,29.61581555
Northern,Lupososhi,Mutondo Health Post,60040016,Health Centre,-10.67495955,29.74037069
Northern,Lupososhi,Mwando Health Post,60040017,Health Centre,-10.81637359,29.87460175
Northern,Luwingu,Namukolo,60040018,Health Centre,-10.25507884,29.92399153
Northern,Luwingu,Ndoki,60040019,Health Centre,-10.97434697,30.56514432
Northern,Luwingu,Njoko Health Post,60040020,Health Centre,-10.73208215,30.5461125
Northern,Luwingu,Nsanja Health Post,60040021,Health Centre,-10.35658637,29.9665082
Northern,Lupososhi,Nsombo,60040022,Health Centre,-10.81514009,29.93980481
Central,Kapiri-Mposhi,Lunsemfwa,10060023,Health Centre,-14.50682938,29.12248596
Northern,Luwingu,Shimumbi,60040023,Health Centre,-10.70328786,30.40077593
Northern,Luwingu,Tungati,60040024,Health Centre,-10.55049261,29.98532282
Northern,Senga Hill,Chikunta,60100001,Health Centre,-9.32393449,31.69449332
Northern,Senga Hill,Chindo Health Post,60100003,Health Centre,-9.341642,31.524344
Northern,Mbala,Isofu,60050002,Health Centre,-8.994279107,31.78871742
Central,Kapiri-Mposhi,Mpunde Mission,10060024,Health Centre,-14.20976302,28.21613507
Northern,Mbala,Kaka,60050003,Health Centre,-9.01431926,31.66584545
Northern,Mbala,Kamuzwazi Health Post,60050004,Health Centre,-9.122508,31.575651
Northern,Mbala,Kaseshya Health Post,60050005,Health Centre,-8.69059391,31.48407559
Northern,Mbala,Kawimbe,60050006,Health Centre,-8.82940738,31.52678258
Northern,Mbala,Luka Health Post,60050007,Health Centre,-8.93765105,31.55301103
Northern,Mbala,Masamba,60050008,Health Centre,-9.148821431,31.37039396
Central,Kapiri-Mposhi,Mukonchi,10060025,Health Centre,-14.26338543,28.81762467
Northern,Mbala,Mbala General Hospital,60050009,Health Centre,-8.84523965,31.36427918
Northern,Mbala,Mbala,60050010,Health Centre,-8.84583696,31.36413123
Northern,Mbala,Mulefu Health Post,60050011,Health Centre,-8.88444424,31.46771624
Northern,Mbala,Musipazi,60050012,Health Centre,-8.68169915,31.38504314
Northern,Mbala,Mwamba,60050014,Health Centre,-8.8972246,31.61286734
Northern,Mbala,Mwenda Health Post,60050015,Health Centre,-8.95536202,31.18050411
Northern,Senga Hill,Nondo,60100012,Health Centre,-9.56064625,31.19990101
Northern,Senga Hill,Senga Hill,60100014,Health Centre,-9.364941381,31.23839174
Northern,Mbala,Special Forces Clinic,60050016,Health Centre,,
Northern,Mbala,Tulemane,60050017,Health Centre,-8.839306908,31.35533652
Northern,Mbala,ZAF Mbala,60050018,Health Centre,,
Northern,Mbala,ZNS Mbala Camp,60050019,Health Centre,,
Northern,Mporokoso,Bweupe Health Post,60060001,Health Centre,-9.44940142,29.80839288
Northern,Mporokoso,Chalabesa Health Post,60060002,Health Centre,-9.48818658,30.00464233
Central,Kapiri-Mposhi,Mulungushi University Clinic,10060026,Health Centre,-14.29336066,28.55965264
Northern,Mporokoso,Chishamwamba,60060004,Health Centre,-9.36491854,30.12299096
Northern,Lunte,Chitoshi,60060005,Health Centre,, 
Northern,Mporokoso,Kalabwe,60060007,Health Centre,-9.47247307,29.67405764
Northern,Lunte,Kapatu,60060009,Health Centre,-9.72049306,30.7383966
Northern,Lunte,Moseni Health Post,60060010,Health Centre,-9.69352594,31.06396863
Northern,Mporokoso,Mporokoso District Hospital,60060012,Health Centre,-9.37364291,30.10490005
Northern,Lunte,Mukolwe,60060014,Health Centre,-9.49348542,30.57569951
Northern,Lunte,Mukupa Kaoma,60060015,Health Centre,-9.92277875,30.43157651
Northern,Lunte,Mulenga Mapesa Health Post,60060016,Health Centre,-10.20408951,30.35804216
Central,Kapiri-Mposhi,Mutaba,10060028,Health Centre,-13.92537629,28.66832019
Northern,Mporokoso,Njalamimba,60060017,Health Centre,-9.28245045,29.92038438
Northern,Lunte,Shibwalya Kapila,60060018,Health Centre,-9.72075987,30.73178847
Northern,Mporokoso,Sunkutu,60060019,Health Centre,-9.3700894,30.12061877
Northern,Lunte,Vincent Bulaya Health Post,60060020,Health Centre,-9.594116,30.531785
Northern,Mpulungu,Chibote Health Post,60070001,Health Centre,-8.648429168,30.70345773
Northern,Mpulungu,Chinakila,60070002,Health Centre,-9.26362215,30.91023982
Northern,Mpulungu,Chitimbwa,60070003,Health Centre,-8.846514998,30.84821831
Northern,Mpulungu,Isoko,60070005,Health Centre,-8.825505129,31.19847433
Northern,Mpulungu,Kaizya Health Post,60070007,Health Centre,-8.80305965,31.12567968
Central,Kapiri-Mposhi,Ndeke,10060029,Health Centre,-13.96735774,28.69249328
Northern,Mpulungu,Kalongola Health Post,60070009,Health Centre,-8.926116969,30.62034312
Northern,Mpulungu,Kasakalabwe Health Post,60070010,Health Centre,-8.792100521,31.08313909
Northern,Mpulungu,Kopeka,60070011,Health Centre,-9.651302804,30.8580279
Northern,Mpulungu,Lyendwe,60070006,Health Centre,-8.648571528,30.7034231
Northern,Mpulungu,Mpulungu District Hospital,60070012,Health Centre,-8.78608177,31.13339849
Northern,Mpulungu,Mpulungu,60070013,Health Centre,-8.762854268,31.11449847
Northern,Mpulungu,Vyamba,60070014,Health Centre,-8.993077414,31.06565559
Northern,Mungwi,Chifulo Health Post,60080001,Health Centre,-10.39047387,31.64395317
Northern,Mungwi,Chimba,60080002,Health Centre,-9.889656075,31.53376075
Northern,Mungwi,Chimbola Health Post,60080003,Health Centre,-10.01872089,31.61612613
Central,Chibombo,Kayosha,10010017,Health Centre,-15.20378118,28.23740849
Central,Kapiri-Mposhi,Nkole,10060030,Health Centre,-13.76562463,28.80738133
Northern,Mungwi,Chitimukulu,60080004,Health Centre,-9.539358253,31.9590359
Northern,Mungwi,Kalulu,60080005,Health Centre,, 
Northern,Mungwi,Kampamba Health Post,60080006,Health Centre,-10.022466,31.92547678
Northern,Mungwi,Kapolyo,60080007,Health Centre,-10.11212053,31.73450895
Northern,Mungwi,Kaseke Health Post,60080008,Health Centre,-9.83301265,31.72822462
Northern,Mungwi,Katilungu Health Post,60080009,Health Centre,-10.01496157,31.31409094
Northern,Mungwi,Kayambi,60080010,Health Centre,-9.45794885,31.99789935
Northern,Mungwi,Makasa,60080011,Health Centre,, 
Northern,Mungwi,Malole,60080012,Health Centre,-10.12203699,31.57161103
Northern,Mungwi,Mumba,60080013,Health Centre,-10.38803318,31.83222759
Northern,Mungwi,Ndasa,60080015,Health Centre,-10.1229662,31.98808999
Northern,Mungwi,Ngoli,60080016,Health Centre,-9.796095068,31.17557097
Northern,Mungwi,Ngulula Health Post,60080017,Health Centre,-10.06365981,31.34989375
Northern,Mungwi,Nseluka,60080018,Health Centre,-10.06364843,31.34987128
Northern,Mungwi,Peleti,60080019,Health Centre,-9.81697829,31.93247579
Northern,Mungwi,Rosa,60080020,Health Centre,-9.633659022,31.36007038
Northern,Mungwi,Sampa Health Post,60080021,Health Centre,-9.797812,31.726576
Northern,Nsama,Chishela,60090001,Health Centre,-8.53795823,30.14286742
Northern,Nsama,Kakoma Health Post,60090002,Health Centre,-8.987461645,29.71629728
Central,Kapiri-Mposhi,Tazara,10060033,Health Centre,-13.95686479,28.68066046
Northern,Nsama,Kampinda,60090003,Health Centre,-8.788504475,29.76395912
Northern,Nsama,Kapisha,60090004,Health Centre,, 
Northern,Nsama,Mwewe,60090006,Health Centre,-8.63943901,29.97619085
Northern,Nsama,Nsama,60090007,Health Centre,-8.892272688,29.94870717
Northern,Nsama,Nsumbu,60090008,Health Centre,-8.51428622,30.46826376
North-Western,Chavuma,Chavuma Mission Hospital,70010002,Health Centre,-13.0747497,22.6809449
North-Western,Chavuma,Chingi,70010003,Health Centre,-13.0019864,22.72629312
North-Western,Chavuma,Chivombo,70010004,Health Centre,-13.11628203,22.92070994
Central,Kapiri-Mposhi,Waya,10060034,Health Centre,-14.35151217,28.00400128
North-Western,Chavuma,Chiyeke,70010005,Health Centre,-13.07357567,22.73283392
North-Western,Chavuma,Kambuya Health Post,70010006,Health Centre,-13.12749552,22.54774391
North-Western,Chavuma,Lihukwa Health Post,70010007,Health Centre,-13.42694437,22.07555568
North-Western,Chavuma,Lukolwe,70010008,Health Centre,-13.19587056,22.68170633
North-Western,Chavuma,Nguvu Health Post,70010009,Health Centre,-13.44623247,22.04867944
North-Western,Chavuma,Nyatanda,70010010,Health Centre,-13.15676223,22.19363934
North-Western,Ikelenge,Ikelenge,70020001,Health Centre,-11.24033881,24.27292616
North-Western,Ikelenge,Jimbe,70020002,Health Centre,, 
North-Western,Ikelenge,Kafweku,70020003,Health Centre,-11.24994306,24.12805921
Central,Luano,Chembe,10070001,Health Centre,, 
North-Western,Ikelenge,Kalene Mission Hospital,70020004,Health Centre,-11.17644436,24.18843817
North-Western,Ikelenge,Kayipaka,70020006,Health Centre,, 
North-Western,Ikelenge,Mukangala,70020007,Health Centre,-11.11911274,24.27090243
North-Western,Ikelenge,Sachibondu,70020008,Health Centre,-11.52131039,24.46493595
North-Western,Ikelenge,Salujinga,70020009,Health Centre,-10.96942068,24.12408577
North-Western,Kabompo,Chifuwe South,70030001,Health Centre,-13.72441755,24.33745039
North-Western,Kabompo,Chikonkwelo,70030002,Health Centre,-13.31125101,24.08750639
North-Western,Kabompo,Dikolonga Health Post,70030003,Health Centre,-13.04914207,23.52564831
North-Western,Kabompo,Kabompo District Hospital,70030004,Health Centre,-13.59573034,24.20443386
Central,Luano,Chikupili,10070002,Health Centre,-14.0773279,29.24262326
North-Western,Kabompo,Kabompo HAHC,70030005,Health Centre,-13.59581294,24.20444056
North-Western,Kabompo,Kabulamema,70030006,Health Centre,-13.85094424,24.01353819
North-Western,Kabompo,Kalunga,70030007,Health Centre,-13.39817056,23.83117765
North-Western,Kabompo,Kavungu Health Post,70030008,Health Centre,-13.47681556,24.3342257
North-Western,Kabompo,Kayombo,70030009,Health Centre,-13.05020603,23.83409967
North-Western,Kabompo,Litoya Health Post,70030010,Health Centre,-13.53580048,24.35284509
North-Western,Kabompo,Mbulunda Health Post,70030011,Health Centre,-13.19066078,23.95958355
North-Western,Kabompo,Mufuli Wanjamba Health Post,70030012,Health Centre,-13.91490839,23.6517947
North-Western,Kabompo,Mumbeji,70030013,Health Centre,-13.85925442,23.6653743
Central,Luano,Chimika,10070003,Health Centre,,
North-Western,Kabompo,Ndungo,70030014,Health Centre,-13.62389567,24.18509941
North-Western,Kabompo,Nkulwashi,70030015,Health Centre,-13.71999297,24.10203315
North-Western,Kabompo,Samununga Health Post,70030016,Health Centre,-13.63334861,24.10610558
North-Western,Kasempa,Dengwe,70050001,Health Centre,-13.31399516,25.83386103
North-Western,Kasempa,Jifumpa,70050002,Health Centre,-13.96778149,26.31947108
North-Western,Kasempa,Kalombe,70050003,Health Centre,-13.39025572,25.67252277
North-Western,Kasempa,Kamakechi,70050004,Health Centre,-13.91158354,26.18672949
North-Western,Kasempa,Kamakuku,70050005,Health Centre,-13.00622585,25.67561103
North-Western,Kasempa,Kanjibiji,70050006,Health Centre,-13.4890068,25.96112527
North-Western,Kasempa,Kankolonkolo,70050007,Health Centre,-13.01414367,26.00396786
Central,Luano,Chingombe,10070004,Health Centre,, 
North-Western,Kasempa,Kasempa,70050008,Health Centre,-13.45830181,25.83267661
North-Western,Kasempa,Kelongwa,70050009,Health Centre,-13.70997192,26.33798219
North-Western,Kasempa,Kivuku,70050010,Health Centre,-13.49797662,25.86754045
North-Western,Kasempa,Lubofu,70050011,Health Centre,-13.58503732,26.12233106
North-Western,Kasempa,Lunga,70050012,Health Centre,-12.99999553,26.5254708
North-Western,Kasempa,Mako Health Post,70050013,Health Centre,-13.48969224,26.46421049
North-Western,Kasempa,Mbulumunene,70050014,Health Centre,-13.746578,25.956579
North-Western,Kasempa,Mpungu,70050015,Health Centre,-13.60387607,26.07841578
North-Western,Kasempa,Mukema Health Post,70050016,Health Centre,-13.05462465,26.39301163
North-Western,Kasempa,Mukinge Mission Hospital,70050017,Health Centre,-13.05462465,26.39301163
Central,Luano,Kampelembe,10070005,Health Centre,-14.16460036,29.3225169
North-Western,Kasempa,Mukunashi,70050018,Health Centre,-13.87597253,25.87839846
North-Western,Kasempa,Njenga,70050019,Health Centre,-13.49829243,25.71310927
North-Western,Kasempa,Nselauke,70050020,Health Centre,-13.10475272,25.87108248
North-Western,Kasempa,Ntemwa,70050021,Health Centre,-13.74695228,26.12528315
North-Western,Kasempa,Nyoka,70050022,Health Centre,-13.35372662,26.6050546
North-Western,Kasempa,Shivuma Health Post,70050023,Health Centre,-13.35007873,25.94283855
North-Western,Manyinga,Chifuwe North Health Post,70060001,Health Centre,-13.49823279,24.4667363
North-Western,Manyinga,Chiteve Health Post,70060002,Health Centre,-13.29843249,24.39851213
North-Western,Manyinga,Diambombola,70060003,Health Centre,-13.076952,24.091993
North-Western,Manyinga,Kasamba,70060004,Health Centre,-13.25525429,24.49318564
Central,Luano,Kanyesha Health Post,10070007,Health Centre,-14.46617765,29.40500915
North-Western,Manyinga,Kashinakaji,70060005,Health Centre,-12.84948468,24.25842622
North-Western,Manyinga,Kawanda Health Post,70060006,Health Centre,-13.31580017,24.43255004
North-Western,Manyinga,Loloma HAHC,70060007,Health Centre,, 
North-Western,Manyinga,Loloma Mission Hospital,70060008,Health Centre,-13.40467093,24.32854361
North-Western,Manyinga,Luansongwa,70060009,Health Centre,-13.03282988,24.22344795
North-Western,Manyinga,Mayawu Health post,70060010,Health Centre,-12.75097879,24.26748874
North-Western,Manyinga,Mukosho Health Post,70060011,Health Centre,-13.29911297,24.21953738
North-Western,Manyinga,St. Kalemba,70060012,Health Centre,-13.34098351,24.40471642
North-Western,Mufumbwe,Boma,70070001,Health Centre,-13.14080191,25.00698835
North-Western,Mufumbwe,Jivundu,70070002,Health Centre,-13.10378408,24.69059547
Central,Chibombo,Keembe,10010018,Health Centre,-14.90235851,27.78020143
Central,Luano,Kaundula,10070006,Health Centre,-14.19322751,29.66103296
North-Western,Mufumbwe,Kabipupu,70070004,Health Centre,-13.68948875,24.97690033
North-Western,Mufumbwe,Kalengwa,70070005,Health Centre,-13.46317386,25.00211192
North-Western,Mufumbwe,Kaminzekenzeke,70070006,Health Centre,-13.78366705,25.54819937
North-Western,Mufumbwe,Kashima,70070007,Health Centre,-13.21915661,24.57742562
North-Western,Mufumbwe,Kikonge Health Post,70070008,Health Centre,-14.186707,24.995795
North-Western,Mufumbwe,Lalafuta,70070009,Health Centre,-14.18711219,24.99532996
North-Western,Mufumbwe,Lubilo,70070010,Health Centre,-13.18448332,24.90614072
North-Western,Mufumbwe,Matushi,70070011,Health Centre,-13.20131992,24.77628493
North-Western,Mufumbwe,Miluji Health Post,70070012,Health Centre,-14.46850018,25.02191979
Central,Luano,Mboroma,10070008,Health Centre,-14.11731392,30.13253446
North-Western,Mufumbwe,Mufumbwe District Hospital,70070013,Health Centre,-13.14457012,25.0347876
North-Western,Mufumbwe,Mufumbwe HAHC,70070014,Health Centre,-13.14609534,25.0333216
North-Western,Mufumbwe,Munyambala,70070015,Health Centre,-13.35968446,24.86240027
North-Western,Mufumbwe,Musonweji,70070017,Health Centre,-13.730532,25.015452
North-Western,Mufumbwe,Nyansonso,70070018,Health Centre,-12.986288,25.584064
North-Western,Mwinilunga,Chibwika,70090001,Health Centre,-12.07854693,24.30099648
North-Western,Mwinilunga,Chisengisengi,70090002,Health Centre,-12.18068788,24.90778894
North-Western,Mwinilunga,Chiwoma,70090003,Health Centre,-12.30806705,24.26147841
Central,Luano,Mboshya,10070009,Health Centre,, 
North-Western,Mwinilunga,Kakoma,70090004,Health Centre,-11.29639067,25.20899842
North-Western,Mwinilunga,Kamapanda,70090005,Health Centre,-12.00114473,24.05871179
North-Western,Mwinilunga,Kanyama,70090006,Health Centre,-11.439103,24.74790489
North-Western,Mwinilunga,Kanzenzi Health Post,70090007,Health Centre,-12.54608311,24.19897707
North-Western,Mwinilunga,Kapundu,70090008,Health Centre,-11.58603937,24.76212068
North-Western,Mwinilunga,Katuyola,70090009,Health Centre,-11.71651586,24.54766609
North-Western,Mwinilunga,Kawiko,70090010,Health Centre,-11.671256,24.415307
North-Western,Mwinilunga,Kazozu,70090011,Health Centre,-12.25646244,24.90942501
North-Western,Mwinilunga,Lumwana West,70090012,Health Centre,-11.82116598,25.13034448
North-Western,Mwinilunga,Luwi Mission Hospital,70090013,Health Centre,-12.39106255,24.9430211
Central,Luano,Mkushi Copper Mine,10070010,Health Centre,-13.95407746,29.14873709
North-Western,Mwinilunga,Lwawu,70090014,Health Centre,-11.6231974,24.06328554
North-Western,Mwinilunga,Minyanya,70090015,Health Centre,-11.72232032,24.80620472
North-Western,Mwinilunga,Musangila,70090016,Health Centre,-11.73514666,24.25331058
North-Western,Mwinilunga,Mwinilunga District Hospital,70090017,Health Centre,-11.7382317,24.42985903
North-Western,Mwinilunga,Mwinilunga HAHC,70090018,Health Centre,-11.7386668,24.4300933
North-Western,Mwinilunga,Ntambu Sachitolu Health Post,70090019,Health Centre,-11.56555381,24.13419284
North-Western,Mwinilunga,Nyangombe,70090020,Health Centre,-11.76162308,24.61636827
North-Western,Mwinilunga,Sailunga,70090021,Health Centre,-11.80344948,24.90701169
North-Western,Mwinilunga,Sakapoti Health Post,70090022,Health Centre,-11.68671284,24.03918942
North-Western,Mwinilunga,Tom-Ilunga,70090023,Health Centre,-12.30890196,25.11227662
Central,Luano,Old Mkushi,10070011,Health Centre,-14.4162421,29.3972172
North-Western,Kalumbila,Chisasa,70040001,Health Centre,-12.11164347,25.49544903
North-Western,Kalumbila,Chitungu,70040002,Health Centre,-11.95050264,25.39925639
North-Western,Kalumbila,Chovwe,70040003,Health Centre,-12.39714823,25.06519832
North-Western,Kalumbila,Holy Family,70040005,Health Centre,-12.26059856,25.59817764
North-Western,Kalumbila,Jagaimo,70040006,Health Centre,-12.42503872,25.93191401
North-Western,Kalumbila,Jiwundu,70040007,Health Centre,, 
North-Western,Solwezi,Kabwela,70100006,Health Centre,-12.14415085,26.46328182
North-Western,Solwezi,Kainamfumu Health Post,70100007,Health Centre,-12.092019,26.563899
Central,Luano,Tuyu,10070012,Health Centre,-13.62459665,29.39664862
North-Western,Solwezi,Kakombe,70100008,Health Centre,-12.22715821,26.68777997
North-Western,Kalumbila,Kalengelenge (ZFDS W5),7010XX14,Health Centre,, 
North-Western,Kalumbila,Kamala Health Post,70040009,Health Centre,-12.054915,25.774303
North-Western,Kalumbila,Kamano Health Post,70040010,Health Centre,-12.865283,26.039372
North-Western,Solwezi,ZNS Kamitonte,70100009,Health Centre,-12.005548,26.417533
North-Western,Kalumbila,Kananga Health Post,70040013,Health Centre,-12.362279,25.951899
Central,Mkushi,Chalata,10080001,Health Centre,-13.55097768,29.68313706
North-Western,Kalumbila,Kankonzhi,70040014,Health Centre,-12.24365367,25.23160432
North-Western,Kalumbila,Kanzala,70040015,Health Centre,-11.88782386,25.25650252
North-Western,Solwezi,Kapijimpanga,70100012,Health Centre,-12.25961173,26.51894563
North-Western,Solwezi,ZNS Katandano,70100013,Health Centre,-12.03889034,26.466738
North-Western,Solwezi,Kazhiba,70100014,Health Centre,-12.12342384,26.29560929
North-Western,Solwezi,Kazomba,70100015,Health Centre,-12.18882045,26.37672674
North-Western,Mushindano,Kichikwe,70080007,Health Centre,-12.34982041,27.22196239
North-Western,Mushindano,Kilumba,70080008,Health Centre,, 
North-Western,Solwezi,Kimasala,70100016,Health Centre,-12.15127692,26.38615706
Central,Mkushi,Changilo Health Post,10080002,Health Centre,-13.54201185,29.61581267
North-Western,Solwezi,Kimiteto,70100017,Health Centre,-12.18963388,26.34107307
North-Western,Solwezi,Kimputubwanga Health Post,70100019,Health Centre,-12.2033483,26.58214218
North-Western,Solwezi,Kisalala,70100020,Health Centre,-12.35338107,26.53216562
North-Western,Kalumbila,Kyabankaka Health Post,70040017,Health Centre,-12.3035018,26.27526786
North-Western,Solwezi,Kyafukuma,70100023,Health Centre,-12.03628432,26.40097345
North-Western,Kalumbila,Kyanyika (ZFDS W8),70040018,Health Centre,-11.91339725,25.68477846
North-Western,Mushindano,ZFDS Luamfula,70080012,Health Centre,-12.217455,27.493033
Central,Mkushi,Chengelo Clinic,10080003,Health Centre,-13.63561659,29.60589445
North-Western,Kalumbila,Lukendo,70040019,Health Centre,-12.69828546,26.32114927
North-Western,Kalumbila,Lumwana District Hospital,70040020,Health Centre,-12.322024,25.839861
North-Western,Kalumbila,Lumwana East,70040021,Health Centre,-12.27163275,25.65624906
North-Western,Kalumbila,Lunsala Health Post,70040024,Health Centre,-12.27163275,25.65624906
North-Western,Kalumbila,Maheba A,70040025,Health Centre,-12.38567093,25.92943691
North-Western,Kalumbila,Maheba B,70040026,Health Centre,-12.43729579,25.92345851
North-Western,Kalumbila,Maheba D,70040027,Health Centre,-12.49801857,25.88045876
North-Western,Solwezi,Maheba,7010XX53,Health Centre,,
North-Western,Kalumbila,Maheba G,70040028,Health Centre,-12.54675259,25.88864738
Central,Mkushi,Chibefwe,10080004,Health Centre,-13.61692516,29.39513179
North-Western,Kalumbila,Mangala (ZFDS W9),70040029,Health Centre,, 
North-Western,Kalumbila,Matebo B,70040031,Health Centre,-12.80832015,25.79817505
North-Western,Solwezi,Mbonge,70100024,Health Centre,-13.29911297,24.21953738
North-Western,Solwezi,Mitukutuku,70100025,Health Centre,-12.24821738,26.33875406
North-Western,Mushindano,Mujimanzovu,70080014,Health Centre,-12.786059,26.517421
North-Western,Kalumbila,Mukumbi,70040033,Health Centre,-12.08658305,25.76951472
Central,Chibombo,Makoka,10010019,Health Centre,-14.69138599,27.77679665
Central,Mkushi,Chisanga,10080005,Health Centre,-13.58670106,28.89901444
North-Western,Solwezi,Mulenga,70100026,Health Centre,-11.998882,26.275543
North-Western,Kalumbila,Mumbezhi ZNS,70040034,Health Centre,,
North-Western,Kalumbila,Mumena,70040035,Health Centre,-12.55113255,26.15256627
North-Western,Kalumbila,Musele,70040036,Health Centre,-12.14257282,25.39305755
North-Western,Mushindano,Mushindano,70080015,Health Centre,-11.85751,27.119397
North-Western,Kalumbila,Mushingashi Health Post,70040037,Health Centre,-12.55328411,26.25546749
North-Western,Solwezi,Mushitala,70100027,Health Centre,-12.15436056,26.42335861
North-Western,Kalumbila,Mutanda Research,70040039,Health Centre,-12.42272297,26.2203177
North-Western,Kalumbila,Mutanda Mission,70040038,Health Centre,-12.39117583,26.25871243
Central,Mkushi,Chitina Health Post,10080006,Health Centre,-13.65550523,29.11293295
North-Western,Kalumbila,Muyashi,70040040,Health Centre,-12.76393017,26.01723684
North-Western,Kalumbila,Nkulumazhimba,70040041,Health Centre,-12.28662877,25.81004122
North-Western,Kalumbila,Northern Resettlement,70040042,Health Centre,-12.16677363,25.44245286
North-Western,Kalumbila,Nyansowe,70040043,Health Centre,-12.23001262,25.52819042
North-Western,Solwezi,Prisons,70100029,Health Centre,-12.185644,26.394466
North-Western,Solwezi,Sandangombe,70100030,Health Centre,-12.36658236,26.35767728
North-Western,Kalumbila,Shilenda,70040046,Health Centre,-12.3924578,25.76738681
North-Western,Kalumbila,Shinengene,70040047,Health Centre,-12.32832677,25.34267846
North-Western,Solwezi,Solwezi General Hospital,70100032,Health Centre,-12.18264494,26.42127789
Central,Mkushi,Fiwila,10080007,Health Centre,-13.97088547,29.60594608
North-Western,Solwezi,Solwezi HAHC,70100033,Health Centre,,
North-Western,Solwezi,Solwezi Medical Centre,70100034,Health Centre,,
North-Western,Solwezi,Solwezi Teachers Training College,70100035,Health Centre,-12.203695,26.407796
North-Western,Solwezi,Solwezi,70100036,Health Centre,-12.18737435,26.39738181
North-Western,Solwezi,St. Francis,70100037,Health Centre,-12.48001692,26.50459014
North-Western,Kalumbila,Tundula Health Post,70040049,Health Centre,-12.4644143,24.98122363
North-Western,Solwezi,Weighbridge,70100041,Health Centre,-12.1923186,26.45005547
North-Western,Solwezi,Zambia Compound,70100043,Health Centre,-12.17189321,26.38865206
Central,Mkushi,Kabengeshi Health Post,10080008,Health Centre,-13.87354743,29.64246579
North-Western,Solwezi,Zangamenu,70100044,Health Centre,-12.20729699,26.42340948
North-Western,Zambezi,Chilenga,70110001,Health Centre,-13.50666675,23.09539542
North-Western,Zambezi,Chinyama Litapi,70110002,Health Centre,-13.560146,22.376964
North-Western,Zambezi,Chinyingi,70110003,Health Centre,-13.35871287,23.01153942
North-Western,Zambezi,Chitokoloki HAHC,70110004,Health Centre,-13.83502876,23.21167031
North-Western,Zambezi,Chitokoloki Mission Hospital,70110005,Health Centre,-13.83452722,23.21176809
North-Western,Zambezi,Chizozu,70110006,Health Centre,-13.853897,23.653089
North-Western,Zambezi,Dipalata,70110007,Health Centre,-13.29643533,23.22012786
North-Western,Zambezi,Kamakala Health Post,70110008,Health Centre,-13.46922298,23.14051051
North-Western,Zambezi,Kangulunga Health Post,70110009,Health Centre,-13.695124,22.86408
Central,Mkushi,Kakushi Health Post,10080009,Health Centre,-13.80320268,29.63100202
North-Western,Zambezi,Kayenge Health Post,70110010,Health Centre,-13.48438,22.037184
North-Western,Zambezi,Kucheka,70110011,Health Centre,, 
North-Western,Zambezi,Lunkunyi Health Post,70110012,Health Centre,-13.21871164,23.01382338
North-Western,Zambezi,Matondo Health Post,70110013,Health Centre,-13.734641,22.452405
North-Western,Zambezi,Mize,70110014,Health Centre,, 
North-Western,Zambezi,Mpindi,70110015,Health Centre,-14.16097911,23.33081701
North-Western,Zambezi,Mukandakunda,70110016,Health Centre,-13.396257,23.064599
North-Western,Zambezi,Muyembe Health Post,70110017,Health Centre,-13.596257,22.783951
North-Western,Zambezi,Nyakulenga,70110018,Health Centre,-13.18027267,23.39706732
North-Western,Zambezi,Nyawanda Health Post,70110019,Health Centre,-13.804054,22.561871
Central,Mkushi,Kasokota Health Post,10080012,Health Centre,-13.70510688,29.17005287
North-Western,Zambezi,Sakayi Health Post,70110020,Health Centre,-13.568531,22.162818
North-Western,Zambezi,Zambezi District Hospital,70110021,Health Centre,-13.54356095,23.11076841
North-Western,Zambezi,Zambezi District HAHC,70110022,Health Centre,-13.54371245,23.10996878
Southern,Chikankata,Cheeba,80010001,Health Centre,-15.7885414,28.34507466
Southern,Chikankata,Chikani Health Post,80010002,Health Centre,-16.02464008,28.29868209
Southern,Chikankata,Chikankata HAHC,80010003,Health Centre,-16.22931364,28.14413832
Southern,Chikankata,Chikankata Referral Hospital,80010004,Health Centre,-16.22948877,28.14442531
Southern,Chikankata,Chikonkomene,80010006,Health Centre,-15.85374753,28.46571053
Southern,Chikankata,Chikombola,80010005,Health Centre,-16.199085,28.20270745
Southern,Chikankata,Kafue Gorge Hospital,80010008,Health Centre,-15.86589216,28.44608255
Southern,Chikankata,Kafue Gorge HAHC,80010007,Health Centre,-15.86589216,28.44608255
Southern,Chikankata,Manyonyo Health Post,80010010,Health Centre,-15.78442869,28.06053646
Southern,Chikankata,Moobe,80010011,Health Centre,-15.92066991,28.36175205
Southern,Chikankata,Mubuyu Health Post,80010012,Health Centre,-16.02574377,28.0723987
Southern,Chikankata,Nadezwe,80010013,Health Centre,-16.21406539,28.06263654
Southern,Chikankata,Naluama,80010014,Health Centre,-15.98321856,28.15604053
Southern,Chikankata,Nameembo,80010015,Health Centre,-16.09969864,28.12165663
Southern,Chikankata,Nanduba Health Post,80010016,Health Centre,-15.87941531,28.29269934
Southern,Chikankata,Riverside Farm,80010018,Health Centre,-15.83526519,28.26302212
Southern,Chikankata,Simwaamba Health Post,80010019,Health Centre,-16.09746541,28.41886039
Southern,Chikankata,Terranova Farm,80010020,Health Centre,-16.17974782,27.99049736
Southern,Choma,Batoka,80020001,Health Centre,-16.76868842,27.25040959
Southern,Choma,Chilalantambo Health Post,80020002,Health Centre,-16.33595055,26.89270986
Southern,Choma,Choma General Hospital,80020005,Health Centre,-16.808045,26.97238
Southern,Choma,Choma HAHC,80020004,Health Centre,-16.80909481,26.9705132
Southern,Choma,Choma Secondary School Health Post,80020007,Health Centre,-16.80304526,26.95791721
Southern,Choma,Harmony Health Post,80020009,Health Centre,-16.75326891,27.10382645
Southern,Choma,Kabanga Health Post,80020010,Health Centre,-16.26484451,26.94709308
Southern,Choma,Kabanze Health Post,80020011,Health Centre,-16.3034032,26.74292592
Central,Mkushi,Masansa,10080018,Health Centre,-13.94506285,29.38708874
Southern,Choma,Kamwanu,80020012,Health Centre,-16.55673021,26.77399797
Southern,Choma,Macha Mission HAHC,80020014,Health Centre,-16.39113645,26.79140333
Southern,Choma,Macha Mission Hospital,80020013,Health Centre,-16.39207179,26.79035543
Southern,Choma,Mangunza,80020015,Health Centre,-16.35732151,27.03820344
Southern,Choma,Mapanza,80020016,Health Centre,-16.25376707,26.90576786
Southern,Choma,Masuku Mines Terminal,80020017,Health Centre,-17.27264574,27.10455467
Southern,Choma,Masuku Mission,80020018,Health Centre,-17.20507038,27.11436988
Southern,Choma,Mbabala,80020020,Health Centre,-16.56323499,26.95693159
Southern,Choma,Mochipapa,80020021,Health Centre,-16.83940474,27.07836449
Southern,Choma,Nakeempa,80020022,Health Centre,-17.04509857,26.91378482
Southern,Choma,Nalituba Health Post,80020023,Health Centre,-16.47882222,26.86269762
Southern,Choma,Nalube Health Post,80020024,Health Centre,-16.37355625,26.9443024
Southern,Choma,Njase,80020025,Health Centre,-16.77996255,26.99124618
Southern,Choma,Pangwe,80020027,Health Centre,-16.68475217,26.86360018
Southern,Choma,Popota,80020028,Health Centre,-16.80789155,26.98339652
Southern,Choma,Prisons,80020030,Health Centre,-16.81132729,26.97125643
Southern,Choma,Railway Surgery,80020031,Health Centre,-16.80801489,26.98323727
Southern,Choma,Shampande,80020032,Health Centre,-16.75203291,26.96318918
Southern,Choma,Siankope,80020034,Health Centre,-16.82752243,26.80149615
Southern,Choma,Sibanyati,80020035,Health Centre,-16.82752243,26.80149615
Central,Chibombo,Malambanyama,10010020,Health Centre,-14.86239338,27.70253403
Central,Mkushi,Mikunku,10080020,Health Centre,-13.79092592,29.04339071
Southern,Choma,Sikalongo,80020036,Health Centre,-16.96727599,27.23305034
Southern,Choma,Simakutu,80020037,Health Centre,-17.06749518,27.00352826
Southern,Choma,Simaubi,80020038,Health Centre,-16.25823413,26.82970745
Southern,Choma,Simeno Health Post,80020039,Health Centre,-17.0158816,27.09783859
Southern,Choma,Simukanka Health Post,80020040,Health Centre,-16.97757794,26.86205909
Southern,Choma,Zambia Railways,8002XX33,Health Centre,,
Southern,Gwembe,Bbondo,80030001,Health Centre,-16.49712317,27.98883808
Southern,Gwembe,Chabbobboma,80030003,Health Centre,-16.77204674,27.83350389
Southern,Gwembe,Chipepo,80030004,Health Centre,-16.80567861,27.86196264
Central,Mkushi,Miloso Health Post,10080021,Health Centre,-13.79749498,29.54635084
Southern,Gwembe,Chisanga Health Post,80030005,Health Centre,-16.93137764,27.58698952
Southern,Gwembe,Gulumunyanga Health Post,80030006,Health Centre,-16.69252165,28.01313931
Southern,Gwembe,Gwembe District Hospital,80030007,Health Centre,-16.49753356,27.60086887
Southern,Gwembe,Gwembe HAHC,80030008,Health Centre,-16.49869833,27.60200461
Southern,Gwembe,Lukonde,80030010,Health Centre,-16.58985885,27.76136463
Southern,Gwembe,Luumbo,80030011,Health Centre,-16.47500217,28.09444319
Southern,Gwembe,Makuyu Health Post,80030012,Health Centre,-16.59600517,27.88731144
Southern,Gwembe,Munyumbwe,80030013,Health Centre,-16.64636189,27.77724674
Central,Mkushi,Mkushi District Hospital,10080022,Health Centre,-13.61662277,29.3952755
Southern,Gwembe,Siabbamba,80030014,Health Centre,-16.88182073,27.66177982
Southern,Gwembe,Sinafala,80030015,Health Centre,-16.82522864,27.75039825
Southern,Gwembe,Sompani,80030016,Health Centre,-16.74341465,27.74142575
Southern,Kalomo,Bbilili,80040001,Health Centre,-16.74927573,26.234204
Southern,Kalomo,Bulyambeba,80040002,Health Centre,-16.59113298,26.42677537
Southern,Kalomo,Chifusa,80040003,Health Centre,-16.66636731,26.77060029
Southern,Kalomo,Chilala Zonal,80040004,Health Centre,-16.37843342,26.64562678
Southern,Kalomo,Choonga,80040005,Health Centre,-17.15538401,26.92060861
Southern,Kalomo,Dimbwe,80040006,Health Centre,-17.15538401,26.92060861
Southern,Kalomo,Habulile,80040007,Health Centre,-16.35875288,26.52104898
Central,Mkushi,Mulundu Health Post,10080024,Health Centre,-13.6139819,29.40963523
Southern,Kalomo,Kalemu Health Post,80040008,Health Centre,-16.51871966,26.49613202
Southern,Kalomo,Kalomo District Hospital,80040009,Health Centre,-17.0306195,26.4774449
Southern,Kalomo,Kalomo District HAHC,80040010,Health Centre,-17.03088303,26.47717995
Southern,Kalomo,Kalonda,80040011,Health Centre,-16.88512039,26.69774026
Southern,Kalomo,Kanchele,80040012,Health Centre,-17.30284834,26.77915326
Southern,Kalomo,Kasukwe Health Post,80040013,Health Centre,-16.574024,26.57230667
Southern,Kalomo,Mabombo Health Post,80040014,Health Centre,-16.33481195,26.4325189
Southern,Kalomo,Masempela,80040015,Health Centre,-17.25224809,26.93642358
Southern,Kalomo,Mawaya,80040016,Health Centre,-17.02082613,26.48232551
Southern,Kalomo,Mayoba,80040017,Health Centre,-17.22769385,26.26921294
Central,Mkushi,Mulungwe,10080025,Health Centre,-13.91839229,29.81265346
Southern,Kalomo,Moonde,80040018,Health Centre,-17.076,26.7982906
Southern,Kalomo,Mubanga,80040019,Health Centre,-16.7317731,26.46493005
Southern,Kalomo,Mukwela,80040020,Health Centre,-17.02806612,26.6561205
Southern,Kalomo,Munkolo,80040021,Health Centre,-17.26868651,26.1275561
Southern,Kalomo,Munyeke,80040022,Health Centre,-16.59447715,26.66490884
Southern,Kalomo,Naluja,80040023,Health Centre,-16.66651282,26.55407544
Southern,Kalomo,Nameto,80040024,Health Centre,-16.67374814,26.35676519
Southern,Kalomo,Namwianga Mission Zonal,80040025,Health Centre,-17.06437703,26.48691159
Southern,Kalomo,Nantale Health Post,80040026,Health Centre,-16.87991477,26.60601399
Southern,Kalomo,Nazilongo,80040027,Health Centre,-16.99382865,26.74655629
Southern,Kalomo,Nkandanzovu,80040028,Health Centre,-16.57278453,26.20162362
Southern,Kalomo,Siabunkululu,80040029,Health Centre,-16.47612124,26.66718646
Southern,Kalomo,Siachitema Zonal,80040030,Health Centre,-16.81821711,26.70506286
Southern,Kalomo,Sipatunyana,80040031,Health Centre,-17.66491394,25.9121372
Southern,Kazungula,Kabuyu,80050002,Health Centre,, 
Southern,Kazungula,Katapazi,80050004,Health Centre,-17.609718,26.143837
Southern,Kazungula,Katombora,80050005,Health Centre,, 
Southern,Kazungula,Kauwe,80050006,Health Centre,, 
Southern,Kazungula,Kazungula,80050008,Health Centre,-17.80507329,25.39791885
Central,Mkushi,Musofu,10080027,Health Centre,-13.51393436,29.04128275
Southern,Kazungula,Makunka,80050009,Health Centre,-17.53466657,25.64229429
Southern,Kazungula,Mambova,80050010,Health Centre,-17.73097881,25.19520234
Southern,Kazungula,Mandia Health Post,80050011,Health Centre,-17.826843,25.5580512
Southern,Kazungula,Manyemunyemu Health Post,80050012,Health Centre,-17.45799651,26.20761928
Southern,Kazungula,Moomba,80050013,Health Centre,-16.62654241,25.32356085
Southern,Kazungula,Mukuni,80050014,Health Centre,-17.90264055,25.93976108
Southern,Kazungula,Musokotwane,80050015,Health Centre,-17.61742887,25.88717963
Southern,Kazungula,Nanyati,80050016,Health Centre,-17.41153789,25.65018607
Southern,Kazungula,Nguba Health Post,80050017,Health Centre,-16.91427089,26.05113141
Southern,Kazungula,Ngwezi,80050018,Health Centre,-17.50772007,25.50647288
Southern,Kazungula,Nyawa,80050019,Health Centre,-17.18716236,25.89235889
Southern,Kazungula,Sekute Health Post,80050020,Health Centre,-17.6563796,25.62630269
Southern,Kazungula,Siakasipa Health Post,80050021,Health Centre,-17.54938386,25.93329846
Southern,Kazungula,Sikaunzwe,80050025,Health Centre,-17.55967774,25.21588163
Southern,Kazungula,Simango,80050026,Health Centre,-17.43034406,25.89545021
Southern,Kazungula,Sinde Health Post,80050027,Health Centre,-17.61919806,25.84099755
Southern,Kazungula,Singwamba,80050028,Health Centre,-16.87607448,25.99697124
Southern,Kazungula,Singwamba Health Post,80120019,Health Centre,-17.26407059,27.46392332
Southern,Livingstone,Airport,80060001,Health Centre,-17.83656674,25.81311587
Central,Mkushi,Nambo Health Post,10080029,Health Centre,-13.60700035,29.5536648
Southern,Livingstone,Army School of Ordinance Clinic,80060002,Health Centre,-17.8724093,25.85341575
Southern,Livingstone,Boma,80060003,Health Centre,-17.84413284,25.85061913
Southern,Livingstone,DALICE,80060006,Health Centre,-17.84858052,25.83091174
Southern,Livingstone,Dambwa North,80060007,Health Centre,-17.84853891,25.84092425
Southern,Livingstone,Dental Clinic,80060008,Health Centre,-17.84438,25.857791
Southern,Livingstone,Hillcrest Health Post,80060010,Health Centre,-17.83471287,25.85667394
Southern,Livingstone,Kasiya Health Post,80060011,Health Centre,-17.74389863,25.92197157
Southern,Livingstone,LIBES,8006XX32,Health Centre,,
Southern,Livingstone,Libuyu,80060012,Health Centre,-17.85365245,25.88329109
Southern,Livingstone,Linda,80060013,Health Centre,-17.86221909,25.86812417
Central,Mkushi,Nkolonga Farm Clinic,10080030,Health Centre,-13.621869,29.607668
Southern,Livingstone,Livingstone Central Hospital,80060014,Health Centre,-17.84279,25.853206
Southern,Livingstone,Mahatma Gandhi,80060016,Health Centre,-17.85819939,25.84266815
Southern,Livingstone,Mahuluhulu Health Post,80060015,Health Centre,-17.74215474,25.99449372
Southern,Livingstone,Maramba,80060017,Health Centre,-17.84732818,25.87199937
Southern,Livingstone,Mosi-oa-Tunya,80060019,Health Centre,-17.86091868,25.85985077
Southern,Livingstone,Nakatindi,80060022,Health Centre,, 
Southern,Livingstone,Namatama Health Post,80060023,Health Centre,-17.824226,25.886759
Southern,Livingstone,Nsongwe Health Post,80060024,Health Centre,-17.9485398,25.89202307
Southern,Livingstone,Police,80060025,Health Centre,-17.84888249,25.86060064
Southern,Livingstone,Prison,80060027,Health Centre,, 
Central,Chibombo,Chibombo,10010002,Health Centre,-14.6638325,28.07594009
Central,Chibombo,Mboshya,10010021,Health Centre,-15.2314023,27.86927096
Central,Mkushi,Nkolonga Health Post,10080031,Health Centre,-13.58975593,29.5786697
Southern,Livingstone,Sepo,80060029,Health Centre,-17.84441487,25.85775534
Southern,Livingstone,Simonga,80060031,Health Centre,-17.80562745,25.71646857
Southern,Livingstone,St. Joseph's Hospice,80060034,Health Centre,-17.83352299,25.88482915
Southern,Livingstone,Victoria Falls,80060037,Health Centre,-17.93021343,25.86999093
Southern,Livingstone,ZAF Livingstone,80060038,Health Centre,-17.82590039,25.81278571
Southern,Mazabuka,Chalimbana Health Post,80070002,Health Centre,-15.94063796,27.59286787
Southern,Mazabuka,Chibote Health Post,8007XX47,Health Centre,-15.94156799,27.82646529
Southern,Mazabuka,Chivuna,80070003,Health Centre,-16.18382862,27.82272564
Southern,Mazabuka,Chuula Clinic,80070043,Health Centre,,
Southern,Mazabuka,Delta Health Post,80070001,Health Centre,-15.82463452,28.02792717
Central,Mkushi,Nkumbi,10080032,Health Centre,-13.7431272,29.06929635
Southern,Mazabuka,Hanjalika,80070004,Health Centre,-16.13407711,27.75580092
Southern,Mazabuka,Hanzala,80070005,Health Centre,-16.26217683,27.9457787
Southern,Mazabuka,Itebe,80070006,Health Centre,-15.81754049,27.52072719
Southern,Mazabuka,Kalama,80070008,Health Centre,-15.95372851,27.51520226
Southern,Mazabuka,Kaleya Sugar PLC Clinic,80070009,Health Centre,-15.83214332,27.73354651
Southern,Mazabuka,Kaleya,80070010,Health Centre,-15.89204044,27.67820781
Southern,Mazabuka,Kangila Health Post,80070011,Health Centre,-16.03039982,27.77556037
Southern,Mazabuka,Kaonga,80070012,Health Centre,-15.86190902,27.7674842
Southern,Mazabuka,Kascol,80070013,Health Centre,-15.87703528,27.6975905
Southern,Mazabuka,Konkola,80070040,Health Centre,-16.225805,27.882051
Central,Mkushi,Nshinso,10080033,Health Centre,-13.61743083,29.75379791
Southern,Mazabuka,Lubombo,80070014,Health Centre,-15.86306406,27.87733017
Southern,Mazabuka,Magoye,80070015,Health Centre,-16.00275722,27.60706625
Southern,Mazabuka,Mainza,80070016,Health Centre,-16.15641628,27.74063064
Southern,Mazabuka,Makuku Health Post,80070017,Health Centre,-15.97758946,28.04126322
Southern,Mazabuka,Manyana Health Post,80070018,Health Centre,-16.02571936,27.54794398
Southern,Mazabuka,Mazabuka General Hospital,80070020,Health Centre,-15.85524718,27.73424385
Southern,Mazabuka,Mazabuka General HAHC,80070021,Health Centre,-15.85539918,27.73408322
Southern,Mazabuka,Mbaya Musuma,80070022,Health Centre,-16.11266448,27.80919488
Southern,Mazabuka,MGM Health Post,80070024,Health Centre,-15.78033424,27.8448576
Southern,Mazabuka,Mugoto,80070025,Health Centre,-15.93513255,28.10280758
Central,Mkushi,Nyenje Health Post,10080034,Health Centre,-14.13105098,29.57829963
Southern,Mazabuka,Mukuyu,80070026,Health Centre,-15.8831486,27.58744726
Southern,Mazabuka,Munenga,80070027,Health Centre,-15.90383806,27.56787737
Southern,Mazabuka,Munjile,80070028,Health Centre,-16.09693466,27.66598045
Southern,Mazabuka,Musangu Health Post,80070029,Health Centre,-15.92190687,28.03526438
Southern,Mazabuka,Musikili Health Post,80070030,Health Centre,-15.86122308,27.63846711
Southern,Mazabuka,Musuma Health Post,80070031,Health Centre,-16.09041801,27.73904456
Southern,Mazabuka,Mweemba Health Post,80070032,Health Centre,-16.05751566,27.70039215
Southern,Mazabuka,Nakambala,80070033,Health Centre,-15.85083404,27.75050241
Southern,Mazabuka,Namaila,80070034,Health Centre,-16.30815902,28.03402318
Southern,Mazabuka,Nanga Farm PLC,80070035,Health Centre,-15.78096408,27.9267208
Central,Mkushi,Shaibila Health Post,10080035,Health Centre,-14.01746911,29.56677804
Southern,Mazabuka,Nanga,80070036,Health Centre,-15.77638194,27.91821499
Southern,Mazabuka,Nkabika,80070039,Health Centre,-15.83878773,27.7674792
Southern,Mazabuka,Research Station,80070041,Health Centre,, 
Southern,Mazabuka,Shimungalu Health Post,80070042,Health Centre,-15.76124352,27.82454089
Southern,Monze,Banakaila,80080001,Health Centre,, 
Southern,Monze,Bweengwa,80080002,Health Centre,, 
Southern,Monze,Charles Lwanga,80080004,Health Centre,-16.42326799,27.55455282
Southern,Monze,Chikuni Mission Hospital,80080005,Health Centre,-16.42944092,27.54549047
Central,Mkushi,Tusekelemo,10080037,Health Centre,-13.62781184,29.39348275
Southern,Monze,Chisekesi,80080006,Health Centre,-16.43893872,27.47761893
Southern,Monze,Hakunkula,80080011,Health Centre,-16.01934393,27.26475178
Southern,Monze,Hamangaba,80080012,Health Centre,-16.19603788,27.12485061
Southern,Monze,Hamapande,80080013,Health Centre,-16.30163888,27.33858177
Southern,Monze,Kanundwa,80080014,Health Centre,-16.19281395,27.33908853
Southern,Monze,Katimba,80080015,Health Centre,-13.65827404,29.89549264
Southern,Monze,Kayola Health Post,80080017,Health Centre,-13.94805227,29.39783156
Southern,Monze,Keemba,80080018,Health Centre,-16.05290093,27.37172708
Central,Mkushi,Twatasha Health Post,10080038,Health Centre,-13.8056451,29.46397429
Southern,Monze,Malundu,80080020,Health Centre,-16.06604685,27.19440632
Southern,Monze,Manungu,80080021,Health Centre,-16.29315261,27.4817865
Southern,Monze,Monze Mission Hospital,80080022,Health Centre,-16.27446622,27.47483237
Southern,Monze,Monze,80080023,Health Centre,-16.27667321,27.47496279
Southern,Monze,Moomba,80080024,Health Centre,-16.37749448,27.86200647
Southern,Monze,Moonzwe,80080025,Health Centre,-15.97082198,27.38368135
Southern,Monze,Munyumabisi Health Post,80080026,Health Centre,-16.12006805,27.55283386
Southern,Monze,Nadongo Health Post,80080027,Health Centre,-16.34042025,27.86115135
Southern,Monze,Nalutanda Health Post,80080028,Health Centre,-16.14957299,27.02898921
Central,Mkushi,Upper Lusemfwa Health Post,10080039,Health Centre,-13.47523911,29.44901426
Southern,Monze,Nampeyo,80080029,Health Centre,-16.34172949,27.65910013
Southern,Monze,Njola Mwanza,80080030,Health Centre,-16.2186191,27.71357554
Southern,Monze,Nteme Health Post,80080031,Health Centre,-16.17638581,27.39923766
Southern,Monze,Rusangu,80080032,Health Centre,-16.37614851,27.53396644
Southern,Monze,Siatontola,80080033,Health Centre,-16.44040434,27.25258436
Southern,Monze,St. Mary's Health Post,80080035,Health Centre,-16.35038184,27.42195119
Southern,Namwala,Baambwe,80090001,Health Centre,-15.77663277,26.51765775
Southern,Namwala,Chitongo Zonal,80090002,Health Centre,-16.03728066,26.93697419
Southern,Namwala,Ichila,80090003,Health Centre,-16.03144656,26.67136065
Central,Mumbwa,Bulungu,10090001,Health Centre,-14.98279135,27.06509336
Southern,Namwala,Itapa Health Post,80090004,Health Centre,-16.11770167,26.52875556
Southern,Namwala,Kabanga Health Post,80090005,Health Centre,-16.08210771,27.03130522
Southern,Namwala,Kabulamwanda,80090006,Health Centre,-15.86694254,26.87359745
Southern,Namwala,Kantengwa,80090007,Health Centre,-15.7713046,26.87763367
Southern,Namwala,Kasenga,80090008,Health Centre,-15.86835338,26.80701228
Southern,Namwala,Maala,80090009,Health Centre,-15.74452295,26.75468054
Southern,Namwala,Masele,80090010,Health Centre,-15.76056613,26.41885774
Southern,Namwala,Moobola,80090011,Health Centre,-16.24738819,26.69721781
Southern,Namwala,Moomba Health Post,80090012,Health Centre,-16.08197951,27.03112367
Central,Mumbwa,Chiwena,10090002,Health Centre,-14.99747534,27.26722445
Southern,Namwala,Muchila,80090013,Health Centre,-16.2350339,26.59739127
Southern,Namwala,Nakamboma,80090014,Health Centre,-16.12461125,26.97702074
Southern,Namwala,Namwala District Hospital,80090015,Health Centre,-15.7520481,26.44312344
Southern,Namwala,Namwala HAHC,80090016,Health Centre,-15.7756582,26.50217864
Southern,Namwala,Nchoole Health Post,80091002,Health Centre,-15.83942,26.67547
Southern,Namwala,Ngabo Health Post,80090017,Health Centre,-15.9297561,26.57862503
Southern,Pemba,Chilundu Health Post,80100001,Health Centre,-16.60223108,27.30253753
Southern,Pemba,Chiyumbabeenzu,80100002,Health Centre,-16.69072167,27.40435
Southern,Pemba,Choompa Health Post,80100003,Health Centre,-16.5024749,27.49093786
Southern,Pemba,Demu Health Post,80100004,Health Centre,-16.60052196,27.38726466
Central,Chibombo,Mungule,10010024,Health Centre,-15.218054,28.1562031
Central,Mumbwa,Chunga,10090003,Health Centre,-15.04770761,26.00288031
Southern,Pemba,Habbanyuka Health Post,80100005,Health Centre,-16.70766737,27.59991459
Southern,Pemba,Jembo,80100006,Health Centre,-16.644072,27.47526906
Southern,Pemba,Kanchomba,80100007,Health Centre,-16.56467806,27.49804202
Southern,Pemba,Kasikili,80100008,Health Centre,-16.58320122,27.54445422
Southern,Pemba,Kasiya,80100009,Health Centre,-16.52859027,27.27362512
Southern,Pemba,Kazimaulu,80100010,Health Centre,-16.85536468,27.50491602
Southern,Pemba,Moyo,80100011,Health Centre,-16.7923778,27.41775662
Southern,Pemba,Muzoka,80100012,Health Centre,-16.67889389,27.31463391
Southern,Pemba,Ndondi Health Post,80100013,Health Centre,-16.73208114,27.39067063
Southern,Pemba,Pemba Main,80100014,Health Centre,-16.52023905,27.36507948
Central,Mumbwa,Kabwanga,10090004,Health Centre,-14.9209166,27.0284433
Southern,Pemba,Pemba Sub,80100015,Health Centre,-16.53859923,27.39857649
Southern,Pemba,Siamuleya,80100016,Health Centre,-16.949855,27.32786667
Southern,Pemba,Sibalumbi Health Post,80100017,Health Centre,-16.55377492,27.45360796
Southern,Pemba,Simooya Health Post,80100018,Health Centre,-16.65039965,27.18419233
Southern,Siavonga,Chaanga,80110001,Health Centre,-16.28171037,28.41605362
Southern,Siavonga,Kariba,80110008,Health Centre,-16.51051022,28.75886818
Southern,Siavonga,Manchamvwa Lakeshore,80111002,Health Centre,-16.533723,28.358039
Southern,Siavonga,Matua,80110010,Health Centre,-16.40688194,28.69908669
Southern,Siavonga,Munyama,80110013,Health Centre,-16.52488598,28.71647
Central,Mumbwa,Kafwikamo Health Post,10090005,Health Centre,-14.63218716,26.91886626
Southern,Siavonga,Nabutezi,80110014,Health Centre,-16.45836568,28.54138437
Southern,Siavonga,Namoomba,80110015,Health Centre,-16.34572724,28.83710344
Southern,Siavonga,Siavonga District Hospital,80110018,Health Centre,-16.53817364,28.70988476
Southern,Sinazongwe,Buleya Malima,80120001,Health Centre,-17.1240152,27.53607105
Southern,Sinazongwe,Chiyabi,80120003,Health Centre,-16.97861352,27.66162409
Southern,Sinazongwe,GVDC,80120004,Health Centre,-17.19922337,27.47699984
Southern,Sinazongwe,Kafwambila,80120005,Health Centre,-17.82334692,27.04583902
Southern,Sinazongwe,Maamba General Hospital,80120006,Health Centre,-17.35846361,27.23055705
Central,Mumbwa,Kaindu,10090006,Health Centre,-14.53298431,26.91996077
Southern,Sinazongwe,Maamba General HAHC,80120007,Health Centre,, 
Southern,Sinazongwe,Muuka Health Post,8012XX25,Health Centre,-17.57317536,27.18421879
Southern,Sinazongwe,Muziyo Health Post,80120008,Health Centre,-17.09254798,27.28180845
Southern,Sinazongwe,Siameja,80120011,Health Centre,-17.70909978,27.01639121
Southern,Sinazongwe,Siampondo Health Post,80120012,Health Centre,-17.84340809,26.82156008
Southern,Sinazongwe,Siansowa,80120013,Health Centre,-17.4655112,27.34984009
Southern,Sinazongwe,Siatwinda,80120014,Health Centre,-17.45569264,27.27321507
Southern,Sinazongwe,Sikaneka,80120015,Health Centre,-17.35513675,27.33963747
Southern,Sinazongwe,Sinamalima,80120017,Health Centre,-17.06129899,27.55133525
Central,Mumbwa,ZNS Kalenda,10090007,Health Centre,-14.71201746,26.88397174
Southern,Sinazongwe,Sulwegonde,80120020,Health Centre,-17.48622217,27.12111144
Southern,Zimba,Luyaba,80130019,Health Centre,-17.38977509,26.64390204
Southern,Zimba,Mapatizya,80130005,Health Centre,-17.6935431,26.86411866
Southern,Zimba,Muzya,80130006,Health Centre,-17.42172649,26.27506155
Southern,Zimba,Nakowa,80130007,Health Centre,-17.31589156,26.19292973
Southern,Zimba,Siamafumba,80130008,Health Centre,-17.51251131,26.60263988
Southern,Zimba,Simalundu,80130009,Health Centre,-17.65951098,26.55187031
Southern,Zimba,Simwatachela,80130010,Health Centre,-17.53003684,26.76019735
Southern,Zimba,Zimba HAHC,8004XX31,Health Centre,,
Central,Mumbwa,Kamilambo,10090008,Health Centre,-14.73808391,27.13238167
Southern,Zimba,Zimba Mission Hospital,80130011,Health Centre,-17.31763461,26.20399892
Western,Kalabo,Buleya Health Post,90010001,Health Centre,-15.1079085,22.70345333
Western,Kalabo,Kalabo District Hospital,90010002,Health Centre,-14.99331544,22.68077004
Western,Kalabo,Kuuli,90010003,Health Centre,-14.65555396,22.85644943
Western,Kalabo,Libonda,90010004,Health Centre,-14.9918006,22.94870842
Western,Kalabo,Liumba,90010005,Health Centre,-14.99609536,22.46244836
Western,Kalabo,Liyoyelo,90010006,Health Centre,-14.99332042,22.68070838
Western,Kalabo,Lukena,90010007,Health Centre,-14.27668256,22.10595034
Western,Kalabo,Lukoko Health Post,90010008,Health Centre,-14.65510295,22.39177726
Western,Kalabo,Lukona,90010009,Health Centre,-15.34516067,22.74247476
Central,Mumbwa,Kapepe Health Post,10090009,Health Centre,-15.09556299,26.66922407
Western,Kalabo,Lumei Health Post,90010010,Health Centre,-14.8355602,22.56566622
Western,Kalabo,Luola Health Post,90010011,Health Centre,-14.54194624,22.27855835
Western,Kalabo,Lutwi Health Post,90010012,Health Centre,-15.35946441,22.54506349
Western,Kalabo,Mapungu,90010013,Health Centre,-15.08388557,22.78033359
Western,Kalabo,Mishulundu Health Post,90010014,Health Centre,-14.7767392,22.80964723
Western,Kalabo,Mitwi Health Post,90010015,Health Centre,-15.5339767,22.67001339
Western,Kalabo,Muchicha Health Post,90010016,Health Centre,-14.45746313,22.75707587
Western,Kalabo,Mulinga Health Post,90010017,Health Centre,-14.91602731,22.77567891
Western,Kalabo,Namatindi,90010019,Health Centre,-15.21169303,22.75079838
Central,Mumbwa,Kashinka Health Post,10090010,Health Centre,-14.97457298,26.9861484
Western,Kalabo,Namundale Health Post,90010020,Health Centre,-15.50481478,22.91307248
Western,Kalabo,Ndoka Health Post,90010021,Health Centre,-15.34196949,22.74350872
Western,Kalabo,N'uma Health Post,90010022,Health Centre,-15.40170859,22.83036807
Western,Kalabo,Salunda Health Post,90010023,Health Centre,-14.92209636,22.64392405
Western,Kalabo,Sihole,90010024,Health Centre,-15.67770711,22.57652391
Western,Kalabo,Siluwe Health Post,90010025,Health Centre,-14.35321307,22.05826786
Western,Kalabo,Sishekanu Health Post,90010026,Health Centre,-14.84083575,22.8076445
Western,Kalabo,Tapo,90010027,Health Centre,-15.15390704,22.85572911
Western,Kalabo,Wenela,90010028,Health Centre,-15.00740341,22.69506036
Western,Kalabo,Yuka Mission HAHC,90010030,Health Centre,-14.98464,22.61315
Central,Mumbwa,Keezwa,10090011,Health Centre,-15.38987122,27.45338939
Western,Kalabo,Yuka Mission Hospital,90010029,Health Centre,-14.984617,22.61312408
Western,Kaoma,Chitwa,90020001,Health Centre,-14.53472278,24.92910036
Western,Kaoma,Kaaba,90020002,Health Centre,-14.82389555,23.70154063
Western,Kaoma,Kabilamwandi,90020003,Health Centre,-14.58969436,23.97719882
Western,Kaoma,Kalwalo Health Post,90020004,Health Centre,-14.74661354,23.90203679
Western,Kaoma,Kaoma District Hospital,90020005,Health Centre,-14.80467773,24.7984005
Western,Kaoma,Kaoma HAHC (Mulamba Clinic),90020006,Health Centre,,
Western,Kaoma,Kaoma,90020007,Health Centre,, 
Western,Kaoma,Kasabi,90020008,Health Centre,-14.86148088,23.76478664
Western,Kaoma,Kasimba,90020009,Health Centre,-14.24401162,24.96611272
Central,Mumbwa,Luili,10090012,Health Centre,-15.16074663,27.18985292
Western,Kaoma,Katoya Health Post,90020010,Health Centre,-14.63965119,25.01893086
Western,Kaoma,Longe Health Post,90020011,Health Centre,-14.82871075,24.88563785
Western,Kaoma,Luena Camp Hospital,90020012,Health Centre,,
Western,Kaoma,Lunyati,90020013,Health Centre,-14.24684622,24.9036092
Western,Kaoma,Mangango Mission HAHC (St. Joseph),90020015,Health Centre,-14.65757011,24.51154327
Western,Kaoma,Mangango Mission Hospital (St. Joseph),90020014,Health Centre,-14.65730244,24.511529
Western,Kaoma,Mayukwayukwa 2,90020017,Health Centre,-14.55199667,24.18480833
Western,Kaoma,Mayukwayukwa,90020018,Health Centre,-14.53839333,24.20900833
Western,Kaoma,Mulalila Health Post,90020019,Health Centre,-14.47913614,24.98445646
Central,Chibombo,Muntemba,10010025,Health Centre,-15.00362378,27.82906911
Central,Mumbwa,Lungobe,10090013,Health Centre,-15.01573219,26.82159081
Western,Kaoma,Mushwala Health Post,90020021,Health Centre,-14.75102657,24.22370424
Western,Kaoma,Mutondo,90020022,Health Centre,-14.71912027,24.61022509
Western,Kaoma,Mwanambuyu,90020023,Health Centre,-14.9203061,24.02054429
Western,Kaoma,Nalulembwe Health Post,90020024,Health Centre,-14.79743581,24.08159149
Western,Kaoma,Namaloba Health Post,90020025,Health Centre,-14.70845653,24.80909635
Western,Kaoma,Shibanga,90020026,Health Centre,-14.551925,24.18754667
Western,Kaoma,Winda,90020028,Health Centre,-14.55836787,23.74686028
Western,Limulunga,Ikabako Health Post,90030001,Health Centre,-15.12163372,23.3239446
Western,Limulunga,Ikwichi,90030002,Health Centre,-15.1106844,23.16254125
Western,Limulunga,Iloke,90030003,Health Centre,-14.696215,23.63210833
Central,Mumbwa,Lutale,10090014,Health Centre,-15.12602969,26.88775155
Western,Limulunga,Kasheke Health Post,90030004,Health Centre,-15.00942305,23.56086274
Western,Limulunga,Limulunga Stage II,90030005,Health Centre,-15.1346123,23.14583788
Western,Limulunga,Miulwe Health Post,90030006,Health Centre,-15.15696065,23.43807778
Western,Limulunga,Mwanawina,90030007,Health Centre,, 
Western,Limulunga,Namitome,90030008,Health Centre,-15.13904143,23.22242425
Western,Limulunga,Nangili Health Post,90030009,Health Centre,-14.881037,23.074142
Western,Limulunga,Nang'oko Health Post,90030010,Health Centre,-15.12581805,23.14919097
Western,Limulunga,Nangula,90030011,Health Centre,-15.03420722,23.42447129
Western,Limulunga,Ndanda,90030012,Health Centre,-14.953765,23.766175
Western,Limulunga,Salondo Health Post,90030013,Health Centre,-15.1009189,22.96429501
Central,Mumbwa,Maimwene Health Post,10090015,Health Centre,-14.94187719,27.2025591
Western,Limulunga,Simaa Health Post,90030014,Health Centre,-14.85350333,23.62169
Western,Limulunga,Sitoya,90030015,Health Centre,-14.77300167,23.47977167
Western,Limulunga,Ushaa,90030016,Health Centre,-14.95604885,23.28568675
Western,Luampa,Afumba,90040001,Health Centre,-15.65368667,24.938385
Western,Luampa,Inkunikila Health Post,90040002,Health Centre,-15.76431833,25.05480333
Western,Luampa,Katunda,90040003,Health Centre,-14.83258172,24.68051353
Western,Luampa,Luampa HAHC,90040005,Health Centre,-15.05698481,24.44320947
Western,Luampa,Luampa Mission Hospital,90040004,Health Centre,-15.05704843,24.44333746
Western,Luampa,Lububa Health Post,90040006,Health Centre,-15.03958017,24.05276741
Western,Luampa,Lui,90040007,Health Centre,-15.02251113,24.15114702
Central,Mumbwa,Mpusu Health Post,10090016,Health Centre,-14.46084773,27.06094782
Western,Luampa,Mbale Health Post,90040008,Health Centre,-14.72015917,24.36042317
Western,Luampa,Mbanyutu,90040009,Health Centre,-14.95390782,24.34481808
Western,Luampa,Mulwa Health Post,90040010,Health Centre,-15.17111473,24.18029583
Western,Luampa,Mwandansengo Health Post,90040011,Health Centre,-14.92111871,24.47109225
Western,Luampa,Nakayembe,90040012,Health Centre,-15.29748765,24.25715465
Western,Luampa,Namando Health Post,90040013,Health Centre,-15.29748765,24.25715465
Western,Luampa,Nkenga,90040014,Health Centre,-14.88644517,24.26306412
Western,Luampa,Nyambi 1,90040015,Health Centre,-15.42248167,24.73351833
Western,Luampa,Nyambi 2,90040016,Health Centre,-15.53997167,24.72815333
Western,Lukulu,Dongwe,90050001,Health Centre,-14.00952307,24.01970942
Central,Mumbwa,Muchabi,10090017,Health Centre,-15.44558146,27.27910374
Western,Lukulu,Kamilende,90050002,Health Centre,-14.12458576,23.54426351
Western,Lukulu,Kasheke Health Post,90050003,Health Centre,-14.2271997,23.28701377
Western,Lukulu,Kawaya Health Post,90050004,Health Centre,-14.48066424,23.23626409
Western,Lukulu,Likapai Health Post,90050005,Health Centre,-14.37610648,23.23763045
Western,Lukulu,Lishuwa,90050006,Health Centre,-14.39591721,23.50024121
Western,Lukulu,Luanchuma Health Post,90050007,Health Centre,-14.34368444,23.2922883
Western,Lukulu,Lubosi Health Post,90050008,Health Centre,-14.39966444,23.25485316
Western,Lukulu,Lubosi,90050009,Health Centre,-14.37657045,23.23764288
Western,Lukulu,Lukau Health Post,90050010,Health Centre,-14.56540044,23.34018781
Western,Lukulu,Lukulu District Hospital,90050011,Health Centre,-14.41279415,23.25933643
Central,Mumbwa,Mumbwa District Hospital,10090018,Health Centre,-14.97612812,27.05325594
Western,Lukulu,Luvuzi,90050012,Health Centre,-14.39410478,23.81873827
Western,Lukulu,Mayankwa,90050013,Health Centre,-14.43475087,23.86169743
Western,Lukulu,Mbanga,90050014,Health Centre,-14.70915,23.19782667
Western,Lukulu,Mulongo Health Post,90050015,Health Centre,-14.40673537,23.23624521
Western,Lukulu,Namayula Health Post,90050016,Health Centre,-14.34460881,23.23384345
Western,Lukulu,Ngimbu,90050017,Health Centre,-14.39274167,23.326555
Western,Lukulu,Ngulwana Health Post,90050018,Health Centre,-14.60097827,23.1260047
Western,Lukulu,Sancta Maria CTC,90050019,Health Centre,-14.37885578,23.23713139
Western,Lukulu,Simakumba,90050020,Health Centre,-14.22758992,23.28654631
Western,Lukulu,Sitaka,90050021,Health Centre,-14.3842873,23.96107499
Central,Mumbwa,Mumbwa Prisons Health Post,10090029,Health Centre,,
Western,Lukulu,Watopa,90050022,Health Centre,-14.0396032,23.62803169
Western,Lukulu,West Five,90050023,Health Centre,-13.9631989,24.4604994
Western,Mitete,Kakulunda,90060001,Health Centre,, 
Western,Mitete,Mambungo Health Post,90060004,Health Centre,-14.013291,22.794072
Western,Mitete,Manjolo Health Post,90060005,Health Centre,-14.281906,23.089046
Western,Mitete,Mataba Health Post,90060006,Health Centre,-14.521013,22.893333
Western,Mitete,Mbangweta Health Post,90060007,Health Centre,-14.689923,22.993931
Western,Mitete,Mitete,90060008,Health Centre,, 
Western,Mitete,Nyaala Health Post,90060009,Health Centre,-14.526549,23.085825
Western,Mitete,Sikunduko,90060010,Health Centre,, 
Central,Mumbwa,Myooye,10090020,Health Centre,-15.2184936,27.3427929
Western,Mongu,Burton Military,90070001,Health Centre,-15.26702408,23.14949499
Western,Mongu,Ilute Health Post,90070004,Health Centre,-15.27610592,23.16329289
Western,Mongu,Imwiko Health Post,90070005,Health Centre,-15.27217992,23.15101351
Western,Mongu,Kaande Health Post,90070006,Health Centre,-15.24362258,23.2471191
Western,Mongu,Kalundwana,90070007,Health Centre,-15.24391106,23.40336324
Western,Mongu,Kama,90070008,Health Centre,-15.34424746,22.93244566
Western,Mongu,Lealui,90070010,Health Centre,-15.23278538,23.0243472
Western,Mongu,Lewanika Referral Hospital,90070011,Health Centre,-15.26525044,23.13821627
Western,Mongu,Lewanika,90070012,Health Centre,-15.26511262,23.13723505
Western,Mongu,Litawa,90070014,Health Centre,-15.26511262,23.13723505
Central,Mumbwa,Nakanjoli,10090021,Health Centre,-15.15774368,26.75243263
Western,Mongu,Liyoyelo,90070015,Health Centre,-15.24105581,23.14435427
Western,Mongu,Looma Health Post,90070016,Health Centre,-15.17471699,23.70584769
Western,Mongu,Luandui,90070017,Health Centre,-15.44827445,23.54128302
Western,Mongu,Lukalanya,90070019,Health Centre,-15.27474982,23.71706217
Western,Mongu,Lukweta,90070020,Health Centre,-15.57995704,23.82914127
Western,Mongu,Lulambo Health Post,90070021,Health Centre,-15.47703674,22.95870767
Western,Mongu,Luatembo Health Post,90070018,Health Centre,-15.2600184,23.80636278
Western,Mongu,Mabumbu,90070022,Health Centre,-15.17614408,23.15363087
Western,Mongu,Mawawa,90070023,Health Centre,-15.17962788,23.24003915
Western,Mongu,Mulambwa,90070024,Health Centre,-15.2760609,23.1297788
Central,Mumbwa,Nalubanda,10090022,Health Centre,-15.41208003,27.07620789
Western,Mongu,Mutalaeti Health Post,90070025,Health Centre,-15.23843027,22.87080739
Western,Mongu,Mweeke Health Post,90070026,Health Centre,-15.2422909,23.33145329
Western,Mongu,Nalikwanda Stage II,90070027,Health Centre,-15.50804501,23.77746857
Western,Mongu,Nalwei,90070028,Health Centre,-15.07650325,23.90556122
